,zpid,price_str,price,zestimate,rent_zestimate,tax_assesed_value,beds,baths,sqft,lot_sqft,lot_acres,lat,lng,zip_code,city,state,address,status_type,status_text,home_type,is_preforeclosure,is_zillow_owned,days_on_zillow,link,miles_from_work,miles_from_work_class,price_per_square_foot,price_per_lot_size,lot_size_per_square_foot,beds_per_square_foot,baths_per_square_foot,beds_and_baths_per_square_foot,lot_sqft_vs_house_sqft,zestimate_vs_price
0,13189295,"$1,199,000",1199000.0,1198351.0,2513.0,678500.0,5.0,3.0,2464.0,10890.0,0.25,39.9929,-105.23588,80303,Boulder,CO,4630 Sioux Dr Boulder CO 80303,FOR_SALE,House for sale,SINGLE_FAMILY,False,False,-1,https://zillow.com/homedetails/4630-Sioux-Dr-Boulder-CO-80303/13189295_zpid/,5.5153409029153355,Best,486.60714285714283,110.1010101010101,8426.0,492.8,821.3333333333334,308.0,4.419642857142857,-649.0
1,220536595,"$800,000",800000.0,781800.0,3140.0,632840.0,2.0,3.0,4218.0,6319.0,0.14506427915518824,39.89361,-105.13996,80021,Broomfield,CO,12701 Meadowlark Ln Broomfield CO 80021,FOR_SALE,Coming soon,SINGLE_FAMILY,False,False,-1,https://zillow.com/homedetails/12701-Meadowlark-Ln-Broomfield-CO-80021/220536595_zpid/,4.179120471383301,Best,189.6633475580844,126.60231049216648,2101.0,2109.0,1406.0,843.6,1.4981033665244192,-18200.0
2,13246857,"$970,000",970000.0,,,635700.0,4.0,4.0,2795.0,6534.0,0.15,40.002136,-105.127525,80026,Lafayette,CO,2508 Ravenwood Ln Lafayette CO 80026,FOR_SALE,House for sale,SINGLE_FAMILY,False,False,-1,https://zillow.com/homedetails/2508-Ravenwood-Ln-Lafayette-CO-80026/13246857_zpid/,7.562547641531639,Good,347.0483005366726,148.45423936333026,3739.0,698.75,698.75,349.375,2.3377459749552774,
3,13224067,"$1,150,000",1150000.0,1150006.0,3428.0,826200.0,3.0,3.0,2446.0,8276.4,0.19,39.984978,-105.144844,80027,Louisville,CO,371 W Harper St Louisville CO 80027,FOR_SALE,House for sale,SINGLE_FAMILY,False,False,-1,https://zillow.com/homedetails/371-W-Harper-St-Louisville-CO-80027/13224067_zpid/,6.064009640006323,Best,470.15535568274737,138.94930162872748,5830.4,815.3333333333334,815.3333333333334,407.6666666666667,3.383646770237122,6.0
4,13248168,"$1,150,000",1150000.0,1150902.0,3294.0,765400.0,5.0,3.0,3703.0,9583.2,0.22000000000000003,39.963272,-105.154175,80027,Louisville,CO,498 Orchard Way Louisville CO 80027,FOR_SALE,House for sale,SINGLE_FAMILY,False,False,-1,https://zillow.com/homedetails/498-Orchard-Way-Louisville-CO-80027/13248168_zpid/,4.597449201745714,Best,310.55900621118013,120.00166958844643,5880.200000000001,740.6,1234.3333333333333,462.875,2.5879557115852014,902.0
5,13187936,"$2,600,000",2600000.0,,,1396600.0,5.0,4.0,3715.0,13068.0,0.3,39.969326,-105.24775,80305,Boulder,CO,3970 Longwood Ave Boulder CO 80305,FOR_SALE,House for sale,SINGLE_FAMILY,False,False,-1,https://zillow.com/homedetails/3970-Longwood-Ave-Boulder-CO-80305/13187936_zpid/,4.169452463808425,Best,699.8654104979812,198.95928986838078,9353.0,743.0,928.75,412.77777777777777,3.5176312247644685,
6,13197459,"$675,000",675000.0,675006.0,2873.0,538400.0,3.0,2.0,1728.0,52524.648,1.2058,40.000515,-105.14173,80026,Lafayette,CO,9057 Baseline Rd Lafayette CO 80026,FOR_SALE,House for sale,SINGLE_FAMILY,False,False,-1,https://zillow.com/homedetails/9057-Baseline-Rd-Lafayette-CO-80026/13197459_zpid/,7.0390957962352925,Good,390.625,12.851109444845779,50796.648,576.0,864.0,345.6,30.396208333333334,6.0
7,13247146,"$1,649,700",1649700.0,,,171250.0,5.0,4.0,3342.0,6969.6,0.16,39.95852,-105.146126,80027,Louisville,CO,731 Saint Andrews Ln Louisville CO 80027,FOR_SALE,New construction,SINGLE_FAMILY,False,False,-1,https://zillow.com/homedetails/731-Saint-Andrews-Ln-Louisville-CO-80027/13247146_zpid/,4.682336841963137,Best,493.62657091561937,236.69938016528926,3627.6000000000004,668.4,835.5,371.3333333333333,2.0854578096947938,
8,13243655,"$1,369,000",1369000.0,,,159950.0,3.0,3.0,2225.0,6098.4,0.13999999999999999,39.955826,-105.15174,80027,Louisville,CO,494 Muirfield Cir Louisville CO 80027,FOR_SALE,New construction,SINGLE_FAMILY,False,False,-1,https://zillow.com/homedetails/494-Muirfield-Cir-Louisville-CO-80027/13243655_zpid/,4.335240472182512,Best,615.2808988764045,224.4851108487472,3873.3999999999996,741.6666666666666,741.6666666666666,370.8333333333333,2.7408539325842693,
9,13246654,"$850,000",850000.0,869230.0,3175.0,591100.0,4.0,3.0,2948.0,6544.0,0.1502295684113866,39.935482,-105.14757,80027,Superior,CO,1812 Eldorado Dr Superior CO 80027,FOR_SALE,House for sale,SINGLE_FAMILY,False,False,-1,https://zillow.com/homedetails/1812-Eldorado-Dr-Superior-CO-80027/13246654_zpid/,3.7847501192926543,Best,288.33107191316145,129.88997555012224,3596.0,737.0,982.6666666666666,421.14285714285717,2.219810040705563,19230.0
10,13220722,"$679,000",679000.0,,,422800.0,3.0,2.0,1284.0,6969.6,0.16,39.98416,-105.15999,80027,Louisville,CO,1430 Kennedy Ave Louisville CO 80027,FOR_SALE,Coming soon,SINGLE_FAMILY,False,False,-1,https://zillow.com/homedetails/1430-Kennedy-Ave-Louisville-CO-80027/13220722_zpid/,5.569079412421808,Best,528.816199376947,97.42309458218548,5685.6,428.0,642.0,256.8,5.42803738317757,
11,13176469,"$1,225,000",1225000.0,,,943600.0,3.0,2.0,1562.0,4356.0,0.1,40.02306,-105.28368,80304,Boulder,CO,1102 Portland Pl Boulder CO 80304,FOR_SALE,House for sale,SINGLE_FAMILY,False,False,-1,https://zillow.com/homedetails/1102-Portland-Pl-Boulder-CO-80304/13176469_zpid/,8.340152280973312,Good,784.2509603072983,281.2213039485767,2794.0,520.6666666666666,781.0,312.4,2.788732394366197,
12,249283576,"$699,000",699000.0,699003.0,2728.0,468540.0,2.0,2.0,2460.0,5227.2,0.12,39.891235,-105.14508,80021,Broomfield,CO,13178 Sandstone Cir Broomfield CO 80021,FOR_SALE,House for sale,SINGLE_FAMILY,False,False,-1,https://zillow.com/homedetails/13178-Sandstone-Cir-Broomfield-CO-80021/249283576_zpid/,3.9906991232330435,Best,284.1463414634146,133.72359963269054,2767.2,1230.0,1230.0,615.0,2.124878048780488,3.0
13,67149184,"$1,195,000",1195000.0,,,832900.0,3.0,3.0,2159.0,7405.2,0.16999999999999998,40.005848,-105.13225,80026,Lafayette,CO,2979 Thunder Lake Cir Lafayette CO 80026,FOR_SALE,House for sale,SINGLE_FAMILY,False,False,-1,https://zillow.com/homedetails/2979-Thunder-Lake-Cir-Lafayette-CO-80026/67149184_zpid/,7.624014329293672,Good,553.4969893469199,161.37308918057582,5246.2,719.6666666666666,719.6666666666666,359.8333333333333,3.4299212598425197,
14,13183310,"$3,900,000",3900000.0,,,1572100.0,4.0,3.0,2579.0,12196.8,0.27999999999999997,40.023224,-105.27728,80304,Boulder,CO,1500 Sunset Blvd Boulder CO 80304,FOR_SALE,House for sale,SINGLE_FAMILY,False,False,-1,https://zillow.com/homedetails/1500-Sunset-Blvd-Boulder-CO-80304/13183310_zpid/,8.205672786153803,Good,1512.2140364482357,319.7560015741834,9617.8,644.75,859.6666666666666,368.42857142857144,4.729274912756882,
15,13188619,"$1,350,000",1350000.0,,,1024500.0,4.0,2.0,2071.0,8276.4,0.19,39.979904,-105.25124,80305,Boulder,CO,1093 Yale Cir Boulder CO 80305,FOR_SALE,House for sale,SINGLE_FAMILY,False,False,-1,https://zillow.com/homedetails/1093-Yale-Cir-Boulder-CO-80305/13188619_zpid/,4.910697456921245,Best,651.8590053114438,163.11439756415834,6205.4,517.75,1035.5,345.1666666666667,3.9963302752293575,
16,13244528,"$1,625,000",1625000.0,,,946400.0,5.0,6.0,5114.0,11761.2,0.27,39.939888,-105.15891,80027,Superior,CO,740 E Heartstrong St Superior CO 80027,FOR_SALE,House for sale,SINGLE_FAMILY,False,False,-1,https://zillow.com/homedetails/740-E-Heartstrong-St-Superior-CO-80027/13244528_zpid/,3.3806192771490426,Best,317.7551818537348,138.16617351970888,6647.200000000001,1022.8,852.3333333333334,464.90909090909093,2.2998044583496284,
17,98361356,"$1,250,000",1250000.0,1250011.0,3280.0,853200.0,4.0,4.0,3262.0,4791.6,0.11000000000000001,39.993774,-105.12416,80027,Louisville,CO,2409 Hecla Dr Louisville CO 80027,FOR_SALE,House for sale,SINGLE_FAMILY,False,False,-1,https://zillow.com/homedetails/2409-Hecla-Dr-Louisville-CO-80027/98361356_zpid/,7.22656645328534,Good,383.2004904966278,260.8731947574923,1529.6000000000004,815.5,815.5,407.75,1.4689147762109136,11.0
18,239898693,"$675,000",675000.0,,,19320.0,2.0,2.0,2261.0,3486.0,0.08002754820936639,39.893486,-105.14628,80021,Broomfield,CO,10767 Bear Cub Dr Broomfield CO 80021,FOR_SALE,House for sale,SINGLE_FAMILY,False,False,-1,https://zillow.com/homedetails/10767-Bear-Cub-Dr-Broomfield-CO-80021/239898693_zpid/,3.870640059166083,Best,298.5404688191066,193.631669535284,1225.0,1130.5,1130.5,565.25,1.541795665634675,
19,50945687,"$1,550,000",1550000.0,,,1034200.0,6.0,6.0,6383.0,10454.4,0.24,39.92059,-105.1635,80027,Superior,CO,341 Amethyst Way Superior CO 80027,FOR_SALE,House for sale,SINGLE_FAMILY,False,False,-1,https://zillow.com/homedetails/341-Amethyst-Way-Superior-CO-80027/50945687_zpid/,2.6924381016097354,Best,242.83252389158702,148.26293235384145,4071.3999999999996,1063.8333333333333,1063.8333333333333,531.9166666666666,1.6378505404981982,
20,13188795,"$905,000",905000.0,,,670600.0,5.0,2.0,1900.0,10454.4,0.24,39.99018,-105.23986,80303,Boulder,CO,105 Mohawk Dr Boulder CO 80303,FOR_SALE,House for sale,SINGLE_FAMILY,False,False,-1,https://zillow.com/homedetails/105-Mohawk-Dr-Boulder-CO-80303/13188795_zpid/,5.382094178832546,Best,476.3157894736842,86.56642179369453,8554.4,380.0,950.0,271.42857142857144,5.502315789473684,
21,13189514,"$1,000,000",1000000.0,,,692100.0,3.0,3.0,1873.0,7405.2,0.16999999999999998,39.998215,-105.22678,80303,Boulder,CO,572 Black Hawk Rd Boulder CO 80303,FOR_SALE,House for sale,SINGLE_FAMILY,False,False,-1,https://zillow.com/homedetails/572-Black-Hawk-Rd-Boulder-CO-80303/13189514_zpid/,5.797871264034478,Best,533.9028296849973,135.04024199211366,5532.2,624.3333333333334,624.3333333333334,312.1666666666667,3.9536572343833423,
22,13253284,"$11,900,000",11900000.0,,,5543200.0,7.0,13.0,16612.0,1724104.7999999998,39.58,40.020393,-105.17139,80301,Boulder,CO,2300 75th St Boulder CO 80301,FOR_SALE,House for sale,SINGLE_FAMILY,False,False,-1,https://zillow.com/homedetails/2300-75th-St-Boulder-CO-80301/13253284_zpid/,7.626629965065215,Good,716.3496267758247,6.9021326313806455,1707492.7999999998,2373.1428571428573,1277.8461538461538,830.6,103.78670840356368,
23,13187155,"$918,000",918000.0,925879.0,3499.0,670300.0,5.0,2.0,1882.0,7405.2,0.16999999999999998,40.002186,-105.23627,80303,Boulder,CO,720 Mohawk Dr Boulder CO 80303,FOR_SALE,House for sale,SINGLE_FAMILY,False,False,-1,https://zillow.com/homedetails/720-Mohawk-Dr-Boulder-CO-80303/13187155_zpid/,6.1477714924536855,Best,487.778958554729,123.96694214876034,5523.2,376.4,941.0,268.85714285714283,3.934750265674814,7879.0
24,13184552,"$739,000",739000.0,,,577300.0,3.0,2.0,1000.0,7405.2,0.16999999999999998,40.002968,-105.249115,80303,Boulder,CO,850 34th St Boulder CO 80303,FOR_SALE,House for sale,SINGLE_FAMILY,False,False,-1,https://zillow.com/homedetails/850-34th-St-Boulder-CO-80303/13184552_zpid/,6.36665283424263,Best,739.0,99.79473883217199,6405.2,333.3333333333333,500.0,200.0,7.4052,
25,13227330,"$2,185,500",2185500.0,2185506.0,8010.0,1361600.0,7.0,4.0,5363.0,16552.8,0.38,40.009922,-105.21115,80303,Boulder,CO,6111 Reserve Dr Boulder CO 80303,FOR_SALE,House for sale,SINGLE_FAMILY,False,False,-1,https://zillow.com/homedetails/6111-Reserve-Dr-Boulder-CO-80303/13227330_zpid/,6.567071386043445,Best,407.514450867052,132.0320429172104,11189.8,766.1428571428571,1340.75,487.54545454545456,3.086481446951333,6.0
26,123602109,"$1,100,000",1100000.0,1100010.0,4139.0,694600.0,5.0,4.0,3253.0,4791.6,0.11000000000000001,39.99621,-105.135666,80026,Lafayette,CO,2880 Shadow Lake Rd Lafayette CO 80026,FOR_SALE,House for sale,SINGLE_FAMILY,False,False,-1,https://zillow.com/homedetails/2880-Shadow-Lake-Rd-Lafayette-CO-80026/123602109_zpid/,6.976588474106634,Best,338.1494005533354,229.5684113865932,1538.6000000000004,650.6,813.25,361.44444444444446,1.472978788810329,10.0
27,13198144,"$1,999,000",1999000.0,1999004.0,4559.0,1028200.0,4.0,3.0,4443.0,31798.8,0.73,39.987648,-105.172966,80303,Boulder,CO,7700 O'Connor Rd Boulder CO 80303,FOR_SALE,House for sale,SINGLE_FAMILY,False,False,-1,https://zillow.com/homedetails/7700-O'Connor-Rd-Boulder-CO-80303/13198144_zpid/,5.471408146739513,Best,449.92122439792934,62.864007446821894,27355.8,1110.75,1481.0,634.7142857142857,7.157056043214045,4.0
28,13179285,"$1,150,000",1150000.0,,,869200.0,3.0,2.0,1253.0,6534.0,0.15,40.001526,-105.271645,80302,Boulder,CO,781 17th St Boulder CO 80302,FOR_SALE,House for sale,SINGLE_FAMILY,False,False,-1,https://zillow.com/homedetails/781-17th-St-Boulder-CO-80302/13179285_zpid/,6.724843499741677,Best,917.7972865123703,176.00244872972146,5281.0,417.6666666666667,626.5,250.6,5.214684756584198,
29,2058075402,"$1,800,000",1800000.0,,,,4.0,4.0,3915.0,15681.599999999999,0.36,39.96112,-105.15117,80027,Louisville,CO,632 S Manorwood Ln Louisville CO 80027,FOR_SALE,House for sale,SINGLE_FAMILY,False,False,-1,https://zillow.com/homedetails/632-S-Manorwood-Ln-Louisville-CO-80027/2058075402_zpid/,4.6038492545000365,Best,459.7701149425287,114.78420569329661,11766.599999999999,978.75,978.75,489.375,4.00551724137931,
30,13176388,"$2,295,000",2295000.0,,,1374100.0,5.0,3.0,2882.0,15681.599999999999,0.36,39.986416,-105.26974,80305,Boulder,CO,1880 Kohler Dr Boulder CO 80305,FOR_SALE,House for sale,SINGLE_FAMILY,False,False,-1,https://zillow.com/homedetails/1880-Kohler-Dr-Boulder-CO-80305/13176388_zpid/,5.762748398699826,Best,796.3219986120749,146.34986225895318,12799.599999999999,576.4,960.6666666666666,360.25,5.441221374045801,
31,13249991,"$1,250,000",1250000.0,1250009.0,3999.0,717500.0,5.0,4.0,4041.0,9725.0,0.2232552800734619,39.99834,-105.126045,80026,Lafayette,CO,2410 Waneka Lake Trl Lafayette CO 80026,FOR_SALE,House for sale,SINGLE_FAMILY,False,False,-1,https://zillow.com/homedetails/2410-Waneka-Lake-Trl-Lafayette-CO-80026/13249991_zpid/,7.404214120334769,Good,309.3293739173472,128.53470437017995,5684.0,808.2,1010.25,449.0,2.406582529076961,9.0
32,13182042,"$797,000",797000.0,806375.0,2870.0,552700.0,3.0,1.0,1050.0,5947.0,0.13652433425160698,39.994408,-105.25891,80305,Boulder,CO,205 29th St Boulder CO 80305,FOR_SALE,House for sale,SINGLE_FAMILY,False,False,-1,https://zillow.com/homedetails/205-29th-St-Boulder-CO-80305/13182042_zpid/,5.991524287681048,Best,759.047619047619,134.01715150496048,4897.0,350.0,1050.0,262.5,5.663809523809523,9375.0
33,13217148,"$2,999,900",2999900.0,2968534.0,9958.0,1929500.0,3.0,5.0,3025.0,4356.0,0.1,40.022034,-105.27676,80304,Boulder,CO,1521 Mapleton Ave Boulder CO 80304,FOR_SALE,House for sale,SINGLE_FAMILY,False,False,-1,https://zillow.com/homedetails/1521-Mapleton-Ave-Boulder-CO-80304/13217148_zpid/,8.1194059716525,Good,991.702479338843,688.6822773186409,1331.0,1008.3333333333334,605.0,378.125,1.44,-31366.0
34,13198156,"$2,750,000",2750000.0,,,1104900.0,5.0,5.0,5352.0,51400.799999999996,1.18,39.97983,-105.17907,80303,Boulder,CO,895 Paragon Dr Boulder CO 80303,FOR_SALE,House for sale,SINGLE_FAMILY,False,False,-1,https://zillow.com/homedetails/895-Paragon-Dr-Boulder-CO-80303/13198156_zpid/,4.848223771750515,Best,513.8266068759342,53.50111282314673,46048.799999999996,1070.4,1070.4,535.2,9.604035874439461,
35,13181492,"$2,347,500",2347500.0,,,1545100.0,4.0,4.0,3108.0,15681.599999999999,0.36,39.986565,-105.27089,80305,Boulder,CO,1815 Kohler Dr Boulder CO 80305,FOR_SALE,House for sale,SINGLE_FAMILY,False,False,-1,https://zillow.com/homedetails/1815-Kohler-Dr-Boulder-CO-80305/13181492_zpid/,5.803103400451807,Best,755.3088803088804,149.69773492500767,12573.599999999999,777.0,777.0,388.5,5.045559845559845,
36,299288496,"$970,000",970000.0,980034.0,3455.0,677400.0,3.0,3.0,3289.0,4791.6,0.11000000000000001,39.945683,-105.14839,80027,Superior,CO,1491 Lanterns Ln Superior CO 80027,FOR_SALE,House for sale,SINGLE_FAMILY,False,False,-1,https://zillow.com/homedetails/1491-Lanterns-Ln-Superior-CO-80027/299288496_zpid/,4.064647862531878,Best,294.9224688355123,202.43759913181398,1502.6000000000004,1096.3333333333333,1096.3333333333333,548.1666666666666,1.45685618729097,10034.0
37,13243938,"$890,000",890000.0,899206.0,3099.0,612400.0,3.0,3.0,2838.0,7258.0,0.16662075298438936,39.95899,-105.15599,80027,Louisville,CO,710 Club Cir Louisville CO 80027,FOR_SALE,House for sale,SINGLE_FAMILY,False,False,-1,https://zillow.com/homedetails/710-Club-Cir-Louisville-CO-80027/13243938_zpid/,4.318460837288086,Best,313.6011275546159,122.62331220721963,4420.0,946.0,946.0,473.0,2.5574348132487668,9206.0
38,13240919,"$1,695,000",1695000.0,1701225.0,3866.0,898600.0,6.0,4.0,4217.0,6969.6,0.16,39.98045,-105.15513,80027,Louisville,CO,695 W Sagebrush Dr Louisville CO 80027,FOR_SALE,House for sale,SINGLE_FAMILY,False,False,-1,https://zillow.com/homedetails/695-W-Sagebrush-Dr-Louisville-CO-80027/13240919_zpid/,5.491819382125533,Best,401.94451031539006,243.19903581267215,2752.6000000000004,702.8333333333334,1054.25,421.7,1.6527389139198483,6225.0
39,13190154,"$849,000",849000.0,861485.0,2328.0,419700.0,2.0,1.0,959.0,7405.2,0.16999999999999998,39.981255,-105.13176,80027,Louisville,CO,1124 Main St Louisville CO 80027,FOR_SALE,House for sale,SINGLE_FAMILY,False,False,-1,https://zillow.com/homedetails/1124-Main-St-Louisville-CO-80027/13190154_zpid/,6.31571642708484,Best,885.2971845672575,114.6491654513045,6446.2,479.5,959.0,319.6666666666667,7.721793534932221,12485.0
40,13183985,"$1,390,000",1390000.0,1390002.0,3421.0,936600.0,4.0,3.0,1882.0,6969.6,0.16,39.975853,-105.255,80305,Boulder,CO,1345 Georgetown Rd Boulder CO 80305,FOR_SALE,House for sale,SINGLE_FAMILY,False,False,-1,https://zillow.com/homedetails/1345-Georgetown-Rd-Boulder-CO-80305/13183985_zpid/,4.744430904679405,Best,738.575982996812,199.43755739210283,5087.6,470.5,627.3333333333334,268.85714285714283,3.703294367693943,2.0
41,249283497,"$699,000",699000.0,699004.0,2921.0,489270.0,2.0,4.0,1834.0,1742.4,0.04,39.913345,-105.147934,80021,Broomfield,CO,13259 Panorama View Ln Broomfield CO 80021,FOR_SALE,House for sale,SINGLE_FAMILY,False,False,-1,https://zillow.com/homedetails/13259-Panorama-View-Ln-Broomfield-CO-80021/249283497_zpid/,3.4902590504641178,Best,381.13413304253,401.1707988980716,-91.59999999999991,917.0,458.5,305.6666666666667,0.9500545256270447,4.0
42,13189845,"$1,200,000",1200000.0,,,775600.0,3.0,3.0,2092.0,6534.0,0.15,39.97982,-105.13602,80027,Louisville,CO,1001 Grant Ave Louisville CO 80027,FOR_SALE,House for sale,SINGLE_FAMILY,False,False,-1,https://zillow.com/homedetails/1001-Grant-Ave-Louisville-CO-80027/13189845_zpid/,6.0893312591528925,Best,573.6137667304015,183.65472910927457,4442.0,697.3333333333334,697.3333333333334,348.6666666666667,3.123326959847036,
43,13187095,"$1,295,000",1295000.0,,,941500.0,4.0,3.0,2149.0,6969.6,0.16,39.97783,-105.25628,80305,Boulder,CO,1180 Ithaca Dr Boulder CO 80305,FOR_SALE,House for sale,SINGLE_FAMILY,False,False,-1,https://zillow.com/homedetails/1180-Ithaca-Dr-Boulder-CO-80305/13187095_zpid/,4.89689241416361,Best,602.6058631921824,185.80693296602388,4820.6,537.25,716.3333333333334,307.0,3.243182875756166,
44,13197528,"$3,000,000",3000000.0,2967999.0,7264.0,1631900.0,3.0,5.0,4213.0,83635.2,1.92,39.98124,-105.192856,80303,Boulder,CO,280 S 68th St Boulder CO 80303,FOR_SALE,House for sale,SINGLE_FAMILY,False,False,-1,https://zillow.com/homedetails/280-S-68th-St-Boulder-CO-80303/13197528_zpid/,4.715748700369677,Best,712.0816520294327,35.87006427915519,79422.2,1404.3333333333333,842.6,526.625,19.851697127937335,-32001.0
45,13258437,"$995,000",995000.0,,,762500.0,4.0,4.0,2825.0,9583.2,0.22000000000000003,40.008015,-105.12939,80026,Lafayette,CO,2565 Lexington St Lafayette CO 80026,FOR_SALE,House for sale,SINGLE_FAMILY,False,False,-1,https://zillow.com/homedetails/2565-Lexington-St-Lafayette-CO-80026/13258437_zpid/,7.833249912960592,Good,352.21238938053096,103.82753151348192,6758.200000000001,706.25,706.25,353.125,3.392283185840708,
46,13185467,"$1,075,000",1075000.0,1075005.0,3640.0,715100.0,5.0,3.0,2408.0,10778.0,0.24742883379247016,39.99372,-105.25228,80305,Boulder,CO,3410 Ash Ave Boulder CO 80305,FOR_SALE,House for sale,SINGLE_FAMILY,False,False,-1,https://zillow.com/homedetails/3410-Ash-Ave-Boulder-CO-80305/13185467_zpid/,5.815699554131759,Best,446.42857142857144,99.74021154203007,8370.0,481.6,802.6666666666666,301.0,4.475913621262459,5.0
47,239898404,"$590,000",590000.0,590001.0,2364.0,364510.0,2.0,2.0,1216.0,4791.6,0.11000000000000001,39.893627,-105.14597,80021,Broomfield,CO,10835 Bear Cub Dr Broomfield CO 80021,FOR_SALE,House for sale,SINGLE_FAMILY,False,False,-1,https://zillow.com/homedetails/10835-Bear-Cub-Dr-Broomfield-CO-80021/239898404_zpid/,3.8821267406323066,Best,485.19736842105266,123.13214792553634,3575.6000000000004,608.0,608.0,304.0,3.94046052631579,1.0
48,13220759,"$825,000",825000.0,,,528400.0,3.0,2.0,1858.0,6969.6,0.16,39.9834,-105.155,80027,Louisville,CO,728 W Willow St Louisville CO 80027,FOR_SALE,House for sale,SINGLE_FAMILY,False,False,-1,https://zillow.com/homedetails/728-W-Willow-St-Louisville-CO-80027/13220759_zpid/,5.664838719036393,Best,444.0258342303552,118.37121212121211,5111.6,619.3333333333334,929.0,371.6,3.751130247578041,
49,13180709,"$2,600,000",2600000.0,2505454.0,8878.0,2153600.0,4.0,3.0,2392.0,17859.6,0.41,40.020996,-105.28257,80304,Boulder,CO,1039 Mapleton Ave Boulder CO 80304,FOR_SALE,House for sale,SINGLE_FAMILY,False,False,-1,https://zillow.com/homedetails/1039-Mapleton-Ave-Boulder-CO-80304/13180709_zpid/,8.18630415890394,Good,1086.9565217391305,145.5799681963762,15467.599999999999,598.0,797.3333333333334,341.7142857142857,7.46638795986622,-94546.0
50,13185646,"$2,150,000",2150000.0,2148837.0,6950.0,1378400.0,4.0,3.0,3670.0,20908.8,0.48,39.984646,-105.26185,80305,Boulder,CO,2390 Vassar Dr Boulder CO 80305,FOR_SALE,House for sale,SINGLE_FAMILY,False,False,-1,https://zillow.com/homedetails/2390-Vassar-Dr-Boulder-CO-80305/13185646_zpid/,5.450894985073203,Best,585.8310626702997,102.82751760024487,17238.8,917.5,1223.3333333333333,524.2857142857143,5.697220708446866,-1163.0
51,13224260,"$1,075,000",1075000.0,1075741.0,2951.0,667700.0,3.0,2.0,1593.0,3049.2,0.06999999999999999,39.980385,-105.239525,80305,Boulder,CO,1007 Tantra Park Cir Boulder CO 80305,FOR_SALE,House for sale,SINGLE_FAMILY,False,False,-1,https://zillow.com/homedetails/1007-Tantra-Park-Cir-Boulder-CO-80305/13224260_zpid/,4.726092537488539,Best,674.827369742624,352.5514889151253,1456.1999999999998,531.0,796.5,318.6,1.9141242937853107,741.0
52,13242738,"$1,395,000",1395000.0,1407681.0,4379.0,927500.0,5.0,4.0,3650.0,10454.4,0.24,39.977882,-105.16055,80027,Louisville,CO,802 Flatirons Ct Louisville CO 80027,FOR_SALE,House for sale,SINGLE_FAMILY,False,False,-1,https://zillow.com/homedetails/802-Flatirons-Ct-Louisville-CO-80027/13242738_zpid/,5.184952490772743,Best,382.1917808219178,133.4366391184573,6804.4,730.0,912.5,405.55555555555554,2.8642191780821915,12681.0
53,13197573,"$1,500,000",1500000.0,,,786700.0,2.0,2.0,1826.0,43995.6,1.01,39.98539,-105.189804,80303,Boulder,CO,6988 S Boulder Rd Boulder CO 80303,FOR_SALE,House for sale,SINGLE_FAMILY,False,False,-1,https://zillow.com/homedetails/6988-S-Boulder-Rd-Boulder-CO-80303/13197573_zpid/,5.033222841598689,Best,821.4676889375685,34.09431852276137,42169.6,913.0,913.0,456.5,24.093975903614457,
54,13179977,"$850,000",850000.0,850586.0,2719.0,800700.0,2.0,1.0,988.0,4356.0,0.1,40.022865,-105.28358,80304,Boulder,CO,2460 10th St Boulder CO 80304,FOR_SALE,House for sale,SINGLE_FAMILY,False,False,-1,https://zillow.com/homedetails/2460-10th-St-Boulder-CO-80304/13179977_zpid/,8.32573113537316,Good,860.3238866396761,195.1331496786042,3368.0,494.0,988.0,329.3333333333333,4.4089068825910935,586.0
55,13222704,"$1,998,000",1998000.0,,,1555500.0,4.0,4.0,3292.0,4356.0,0.1,39.966145,-105.25722,80305,Boulder,CO,1975 Tincup Ct Boulder CO 80305,FOR_SALE,House for sale,SINGLE_FAMILY,False,False,-1,https://zillow.com/homedetails/1975-Tincup-Ct-Boulder-CO-80305/13222704_zpid/,4.2234863315003075,Best,606.9258809234508,458.6776859504132,1064.0,823.0,823.0,411.5,1.3232077764277035,
56,249283505,"$685,000",685000.0,685002.0,3112.0,509360.0,3.0,3.0,1829.0,1705.0,0.039141414141414144,39.91274,-105.147675,80021,Broomfield,CO,11924 Skyview Ln Broomfield CO 80021,FOR_SALE,House for sale,SINGLE_FAMILY,False,False,-1,https://zillow.com/homedetails/11924-Skyview-Ln-Broomfield-CO-80021/249283505_zpid/,3.5055219260848913,Best,374.5215965008201,401.75953079178885,-124.0,609.6666666666666,609.6666666666666,304.8333333333333,0.9322033898305084,2.0
57,13183628,"$735,000",735000.0,,,585000.0,4.0,2.0,1323.0,6969.6,0.16,40.003197,-105.2444,80303,Boulder,CO,860 39th St Boulder CO 80303,FOR_SALE,House for sale,SINGLE_FAMILY,False,False,-1,https://zillow.com/homedetails/860-39th-St-Boulder-CO-80303/13183628_zpid/,6.313033150102654,Best,555.5555555555555,105.45798898071625,5646.6,330.75,661.5,220.5,5.268027210884354,
58,13186352,"$1,100,000",1100000.0,,,711600.0,4.0,2.0,2012.0,7840.8,0.18,39.992924,-105.25057,80305,Boulder,CO,70 S 36th St Boulder CO 80305,FOR_SALE,House for sale,SINGLE_FAMILY,False,False,-1,https://zillow.com/homedetails/70-S-36th-St-Boulder-CO-80305/13186352_zpid/,5.73280472877816,Best,546.7196819085488,140.29180695847361,5828.8,503.0,1006.0,335.3333333333333,3.8970178926441355,
59,13197744,"$2,500,000",2500000.0,2500005.0,8668.0,1274200.0,4.0,4.0,3801.0,32670.0,0.75,39.987644,-105.17379,80303,Boulder,CO,7666 O'Connor Rd Boulder CO 80303,FOR_SALE,House for sale,SINGLE_FAMILY,False,False,-1,https://zillow.com/homedetails/7666-O'Connor-Rd-Boulder-CO-80303/13197744_zpid/,5.4540640893892975,Best,657.7216521967903,76.52280379553106,28869.0,950.25,950.25,475.125,8.595106550907657,5.0
60,13177256,"$1,400,000",1400000.0,1385362.0,3714.0,966000.0,2.0,2.0,1121.0,6534.0,0.15,40.004295,-105.28394,80302,Boulder,CO,924 8th St Boulder CO 80302,FOR_SALE,House for sale,SINGLE_FAMILY,False,False,-1,https://zillow.com/homedetails/924-8th-St-Boulder-CO-80302/13177256_zpid/,7.2087503338730645,Good,1248.884924174844,214.263850627487,5413.0,560.5,560.5,280.25,5.828724353256021,-14638.0
61,13177828,"$4,890,000",4890000.0,4754657.0,16549.0,3570800.0,5.0,6.0,6247.0,13068.0,0.3,39.998047,-105.274765,80302,Boulder,CO,1401 Mariposa Ave Boulder CO 80302,FOR_SALE,House for sale,SINGLE_FAMILY,False,False,-1,https://zillow.com/homedetails/1401-Mariposa-Ave-Boulder-CO-80302/13177828_zpid/,6.591256787185145,Best,782.7757323515287,374.1965105601469,6821.0,1249.4,1041.1666666666667,567.9090909090909,2.0918841043700978,-135343.0
62,13197479,"$5,465,000",5465000.0,,,3055500.0,6.0,5.0,8402.0,108028.8,2.48,39.985474,-105.168686,80303,Boulder,CO,7875 Edelweiss Ct Boulder CO 80303,FOR_SALE,House for sale,SINGLE_FAMILY,False,False,-1,https://zillow.com/homedetails/7875-Edelweiss-Ct-Boulder-CO-80303/13197479_zpid/,5.429555310566681,Best,650.4403713401571,50.58836162208596,99626.8,1400.3333333333333,1680.4,763.8181818181819,12.857510116638895,
63,13183139,"$650,000",650000.0,,,787100.0,2.0,1.0,1032.0,5227.2,0.12,40.024242,-105.28525,80304,Boulder,CO,920 North St Boulder CO 80304,FOR_SALE,House for sale,SINGLE_FAMILY,False,False,-1,https://zillow.com/homedetails/920-North-St-Boulder-CO-80304/13183139_zpid/,8.450309706576626,Good,629.8449612403101,124.34955616773799,4195.2,516.0,1032.0,344.0,5.065116279069767,
64,13178364,"$1,150,000",1150000.0,,,741500.0,2.0,2.0,1052.0,3049.2,0.06999999999999999,40.0156,-105.26956,80302,Boulder,CO,1933 Grove St Boulder CO 80302,FOR_SALE,House for sale,SINGLE_FAMILY,False,False,-1,https://zillow.com/homedetails/1933-Grove-St-Boulder-CO-80302/13178364_zpid/,7.559323359782091,Good,1093.1558935361218,377.1481044208317,1997.1999999999998,526.0,526.0,263.0,2.8984790874524715,
65,13189208,"$1,099,000",1099000.0,1098405.0,4146.0,622800.0,4.0,3.0,2444.0,11945.000000000002,0.2742194674012856,39.991997,-105.232216,80303,Boulder,CO,4990 Ricara Dr Boulder CO 80303,FOR_SALE,House for sale,SINGLE_FAMILY,False,False,-1,https://zillow.com/homedetails/4990-Ricara-Dr-Boulder-CO-80303/13189208_zpid/,5.416029878787944,Best,449.67266775777415,92.005023022185,9501.000000000002,611.0,814.6666666666666,349.14285714285717,4.887479541734861,-595.0
66,13183191,"$2,350,000",2350000.0,2316305.0,9259.0,1706000.0,5.0,5.0,4861.0,6534.0,0.15,40.00444,-105.279015,80302,Boulder,CO,935 11th St Boulder CO 80302,FOR_SALE,House for sale,SINGLE_FAMILY,False,False,-1,https://zillow.com/homedetails/935-11th-St-Boulder-CO-80302/13183191_zpid/,7.086549466053328,Good,483.43962147706236,359.657177838996,1673.0,972.2,972.2,486.1,1.344167866694096,-33695.0
67,13176707,"$2,650,000",2650000.0,,,1873400.0,4.0,4.0,3562.0,6969.6,0.16,40.004173,-105.28278,80302,Boulder,CO,920 Grant Pl Boulder CO 80302,FOR_SALE,House for sale,SINGLE_FAMILY,False,False,-1,https://zillow.com/homedetails/920-Grant-Pl-Boulder-CO-80302/13176707_zpid/,7.170018989924145,Good,743.9640651319484,380.222681359045,3407.6000000000004,890.5,890.5,445.25,1.9566535654126895,
68,2058434255,"$1,290,000+",1290000.0,,,,4.0,4.0,2888.0,,,39.954727,-105.17555,80027,Louisville,CO,boulder county by homebound,FOR_SALE,New construction,SINGLE_FAMILY,False,False,-1,https://zillow.com/community/boulder-county-by-homebound/30003851_plid/,3.4164395393545,Best,,,,,,,,
69,13176723,"$2,850,000",2850000.0,,,1523000.0,6.0,3.0,2901.0,9583.2,0.22000000000000003,40.004185,-105.28512,80302,Boulder,CO,910 7th St Boulder CO 80302,FOR_SALE,House for sale,SINGLE_FAMILY,False,False,-1,https://zillow.com/homedetails/910-7th-St-Boulder-CO-80302/13176723_zpid/,7.234686844131256,Good,982.4198552223371,297.3954420235412,6682.200000000001,483.5,967.0,322.3333333333333,3.3034126163391937,
70,13188093,"$3,250,000",3250000.0,3250009.0,11268.0,924800.0,5.0,6.0,3599.0,7405.2,0.16999999999999998,39.979965,-105.25784,80305,Boulder,CO,2860 Table Mesa Dr Boulder CO 80305,FOR_SALE,New construction,SINGLE_FAMILY,False,False,-1,https://zillow.com/homedetails/2860-Table-Mesa-Dr-Boulder-CO-80305/13188093_zpid/,5.065870350341952,Best,903.0286190608502,438.88078647436936,3806.2,719.8,599.8333333333334,327.1818181818182,2.0575715476521257,9.0
71,13179139,"$2,975,000",2975000.0,2920909.0,10503.0,2536600.0,4.0,4.0,4174.0,8276.4,0.19,40.007004,-105.28624,80302,Boulder,CO,640 College Ave Boulder CO 80302,FOR_SALE,House for sale,SINGLE_FAMILY,False,False,-1,https://zillow.com/homedetails/640-College-Ave-Boulder-CO-80302/13179139_zpid/,7.431895220928554,Good,712.7455678006709,359.4558020395341,4102.4,1043.5,1043.5,521.75,1.9828461907043602,-54091.0
72,13189209,"$1,200,000",1200000.0,,,805300.0,4.0,3.0,2430.0,13068.0,0.3,39.992916,-105.23866,80303,Boulder,CO,295 Mohawk Dr Boulder CO 80303,FOR_SALE,House for sale,SINGLE_FAMILY,False,False,-1,https://zillow.com/homedetails/295-Mohawk-Dr-Boulder-CO-80303/13189209_zpid/,5.5495534139742135,Best,493.82716049382714,91.82736455463728,10638.0,607.5,810.0,347.14285714285717,5.377777777777778,
73,13189392,"$998,000",998000.0,998008.0,3170.0,699000.0,4.0,3.0,2044.0,12632.4,0.29,39.992535,-105.23369,80303,Boulder,CO,4875 Ricara Dr Boulder CO 80303,FOR_SALE,House for sale,SINGLE_FAMILY,False,False,-1,https://zillow.com/homedetails/4875-Ricara-Dr-Boulder-CO-80303/13189392_zpid/,5.4671285493364286,Best,488.2583170254403,79.00319812545519,10588.4,511.0,681.3333333333334,292.0,6.180234833659491,8.0
74,13182854,"$6,400,000",6400000.0,6280373.0,21855.0,3747000.0,4.0,6.0,4884.0,20473.2,0.47000000000000003,40.002357,-105.28705,80302,Boulder,CO,819 6th St Boulder CO 80302,FOR_SALE,House for sale,SINGLE_FAMILY,False,False,-1,https://zillow.com/homedetails/819-6th-St-Boulder-CO-80302/13182854_zpid/,7.182036912958872,Good,1310.4013104013104,312.60379422855243,15589.2,1221.0,814.0,488.4,4.191891891891892,-119627.0
75,13179303,"$3,095,000",3095000.0,,,1679100.0,4.0,4.0,3763.0,6098.4,0.13999999999999999,40.003532,-105.28278,80302,Boulder,CO,860 Aurora Ave Boulder CO 80302,FOR_SALE,House for sale,SINGLE_FAMILY,False,False,-1,https://zillow.com/homedetails/860-Aurora-Ave-Boulder-CO-80302/13179303_zpid/,7.131961617469975,Good,822.4820621844273,507.5101666010757,2335.3999999999996,940.75,940.75,470.375,1.6206218442731861,
76,13183171,"$2,300,000",2300000.0,2269484.0,7505.0,1827100.0,2.0,3.0,2724.0,7405.2,0.16999999999999998,39.998856,-105.27352,80302,Boulder,CO,1502 Columbine Ave Boulder CO 80302,FOR_SALE,House for sale,SINGLE_FAMILY,False,False,-1,https://zillow.com/homedetails/1502-Columbine-Ave-Boulder-CO-80302/13183171_zpid/,6.608193267815876,Best,844.3465491923641,310.5925565818614,4681.2,1362.0,908.0,544.8,2.7185022026431716,-30516.0
77,13186013,"$995,000",995000.0,,,798400.0,4.0,2.0,2561.0,6969.6,0.16,39.97401,-105.238655,80305,Boulder,CO,1480 Chambers Dr Boulder CO 80305,FOR_SALE,House for sale,SINGLE_FAMILY,False,False,-1,https://zillow.com/homedetails/1480-Chambers-Dr-Boulder-CO-80305/13186013_zpid/,4.291899057892348,Best,388.52010933229207,142.76285583103765,4408.6,640.25,1280.5,426.8333333333333,2.721436938695822,
78,13224210,"$1,025,000",1025000.0,1025006.0,2635.0,706500.0,3.0,2.0,1459.0,3920.4,0.09,39.97908,-105.23586,80305,Boulder,CO,4838 W Moorhead Cir Boulder CO 80305,FOR_SALE,House for sale,SINGLE_FAMILY,False,False,-1,https://zillow.com/homedetails/4838-W-Moorhead-Cir-Boulder-CO-80305/13224210_zpid/,4.586501420464271,Best,702.535983550377,261.4529129680645,2461.4,486.3333333333333,729.5,291.8,2.6870459218642906,6.0
79,13218248,"$1,800,000",1800000.0,1781180.0,3587.0,1195600.0,3.0,3.0,1774.0,12196.8,0.27999999999999997,39.97313,-105.26545,80305,Boulder,CO,2202 Stony Hill Rd Boulder CO 80305,FOR_SALE,House for sale,SINGLE_FAMILY,False,False,-1,https://zillow.com/homedetails/2202-Stony-Hill-Rd-Boulder-CO-80305/13218248_zpid/,4.866749704661976,Best,1014.6561443066516,147.5796930342385,10422.8,591.3333333333334,591.3333333333334,295.6666666666667,6.875310033821871,-18820.0
80,13182008,"$6,950,000",6950000.0,,,3153100.0,5.0,8.0,6998.0,11325.6,0.26,40.001118,-105.27409,80302,Boulder,CO,749 15th St Boulder CO 80302,FOR_SALE,House for sale,SINGLE_FAMILY,False,False,-1,https://zillow.com/homedetails/749-15th-St-Boulder-CO-80302/13182008_zpid/,6.759998393119001,Best,993.1408973992569,613.6540227449318,4327.6,1399.6,874.75,538.3076923076923,1.6184052586453272,
81,50945281,"$4,750,000",4750000.0,4534090.0,15201.0,3755700.0,5.0,9.0,11338.0,40946.4,0.9400000000000001,40.011898,-105.1437,80303,Boulder,CO,1417 White Hawk Ranch Dr Boulder CO 80303,FOR_SALE,House for sale,SINGLE_FAMILY,False,False,-1,https://zillow.com/homedetails/1417-White-Hawk-Ranch-Dr-Boulder-CO-80303/50945281_zpid/,7.660624948982439,Good,418.9451402363733,116.00531426450188,29608.4,2267.6,1259.7777777777778,809.8571428571429,3.611430587405186,-215910.0
82,13182962,"$975,000",975000.0,,,726500.0,4.0,2.0,1422.0,7405.2,0.16999999999999998,39.988625,-105.25989,80305,Boulder,CO,2685 Kohler Dr Boulder CO 80305,FOR_SALE,House for sale,SINGLE_FAMILY,False,False,-1,https://zillow.com/homedetails/2685-Kohler-Dr-Boulder-CO-80305/13182962_zpid/,5.64971119461289,Best,685.6540084388186,131.66423594231082,5983.2,355.5,711.0,237.0,5.207594936708861,
83,338141014,"$625,220",625220.0,625222.0,2429.0,39200.0,2.0,3.0,1138.0,1867.0,0.04286042240587695,39.950226,-105.16561,80027,Superior,CO,146 Mesa Ct Superior CO 80027,FOR_SALE,New construction,SINGLE_FAMILY,False,False,-1,https://zillow.com/homedetails/146-Mesa-Ct-Superior-CO-80027/338141014_zpid/,3.5308744134739785,Best,549.402460456942,334.87948580610606,729.0,569.0,379.3333333333333,227.6,1.640597539543058,2.0
84,13185536,"$2,840,000",2840000.0,,,2308000.0,4.0,4.0,3722.0,19602.0,0.45,39.969852,-105.25634,80305,Boulder,CO,2790 Juilliard St Boulder CO 80305,FOR_SALE,House for sale,SINGLE_FAMILY,False,False,-1,https://zillow.com/homedetails/2790-Juilliard-St-Boulder-CO-80305/13185536_zpid/,4.4163965665039235,Best,763.0306286942504,144.88317518620548,15880.0,930.5,930.5,465.25,5.2665233745298226,
85,13256163,"$1,150,000",1150000.0,,,587400.0,4.0,4.0,2451.0,5662.8,0.13,39.924873,-105.14726,80027,Superior,CO,3040 E Yarrow Cir Superior CO 80027,FOR_SALE,House for sale,SINGLE_FAMILY,False,False,-1,https://zillow.com/homedetails/3040-E-Yarrow-Cir-Superior-CO-80027/13256163_zpid/,3.5908120391303964,Best,469.19624643002857,203.07974853429397,3211.8,612.75,612.75,306.375,2.310403916768666,
86,13184746,"$785,000",785000.0,,,651700.0,3.0,3.0,1740.0,7840.8,0.18,39.991344,-105.244225,80305,Boulder,CO,4025 Moorhead Ave Boulder CO 80305,FOR_SALE,House for sale,SINGLE_FAMILY,False,False,-1,https://zillow.com/homedetails/4025-Moorhead-Ave-Boulder-CO-80305/13184746_zpid/,5.522917213526651,Best,451.14942528735634,100.11733496581981,6100.8,580.0,580.0,290.0,4.506206896551724,
87,13177560,"$2,795,000",2795000.0,,,1733300.0,4.0,4.0,3371.0,4791.6,0.11000000000000001,40.02205,-105.27409,80302,Boulder,CO,2236 17th St Boulder CO 80302,FOR_SALE,House for sale,SINGLE_FAMILY,False,False,-1,https://zillow.com/homedetails/2236-17th-St-Boulder-CO-80302/13177560_zpid/,8.063362953044683,Good,829.1308217146247,583.3124634777527,1420.6000000000004,842.75,842.75,421.375,1.4214179768614656,
88,13198080,"$1,800,000",1800000.0,,,1015300.0,4.0,3.0,3004.0,30491.999999999996,0.7,40.012394,-105.2152,80303,Boulder,CO,1462 Old Tale Rd Boulder CO 80303,FOR_SALE,House for sale,SINGLE_FAMILY,False,False,-1,https://zillow.com/homedetails/1462-Old-Tale-Rd-Boulder-CO-80303/13198080_zpid/,6.736842216056872,Best,599.2010652463382,59.0318772136954,27487.999999999996,751.0,1001.3333333333334,429.14285714285717,10.150466045272967,
89,13242083,"$1,850,000",1850000.0,,,1098300.0,6.0,5.0,4150.0,11761.2,0.27,39.981075,-105.15859,80027,Louisville,CO,1220 Kennedy Ave Louisville CO 80027,FOR_SALE,House for sale,SINGLE_FAMILY,False,False,-1,https://zillow.com/homedetails/1220-Kennedy-Ave-Louisville-CO-80027/13242083_zpid/,5.426623224868117,Best,445.7831325301205,157.29687446859162,7611.200000000001,691.6666666666666,830.0,377.27272727272725,2.8340240963855425,
90,67150283,"$1,999,000",1999000.0,1997919.0,6930.0,1570100.0,4.0,4.0,3437.0,9583.2,0.22000000000000003,39.999805,-105.27049,80302,Boulder,CO,1780 Baseline Rd Boulder CO 80302,FOR_SALE,House for sale,SINGLE_FAMILY,False,False,-1,https://zillow.com/homedetails/1780-Baseline-Rd-Boulder-CO-80302/67150283_zpid/,6.591140002525381,Best,581.6118708175735,208.5942065280908,6146.200000000001,859.25,859.25,429.625,2.788245562990981,-1081.0
91,13182151,"$5,250,000",5250000.0,,,3348700.0,4.0,4.0,3780.0,62726.399999999994,1.44,39.99406,-105.276855,80302,Boulder,CO,105 Bellevue Dr Boulder CO 80302,FOR_SALE,House for sale,SINGLE_FAMILY,False,False,-1,https://zillow.com/homedetails/105-Bellevue-Dr-Boulder-CO-80302/13182151_zpid/,6.409634821998348,Best,1388.888888888889,83.69681665136211,58946.399999999994,945.0,945.0,472.5,16.594285714285714,
92,13231310,"$1,895,000",1895000.0,1976584.0,6807.0,1558100.0,3.0,4.0,2278.0,4296.0,0.09862258953168045,40.02467,-105.27029,80304,Boulder,CO,2036 Mesa Dr Boulder CO 80304,FOR_SALE,House for sale,SINGLE_FAMILY,False,False,-1,https://zillow.com/homedetails/2036-Mesa-Dr-Boulder-CO-80304/13231310_zpid/,8.153869931716644,Good,831.8700614574188,441.1080074487896,2018.0,759.3333333333334,569.5,325.42857142857144,1.8858647936786654,81584.0
93,13198999,"$2,475,000",2475000.0,2433577.0,8489.0,1361000.0,6.0,6.0,5259.0,32670.0,0.75,40.002388,-105.23253,80303,Boulder,CO,801 Brooklawn Dr Boulder CO 80303,FOR_SALE,House for sale,SINGLE_FAMILY,False,False,-1,https://zillow.com/homedetails/801-Brooklawn-Dr-Boulder-CO-80303/13198999_zpid/,6.126227753992739,Best,470.6217912150599,75.75757575757575,27411.0,876.5,876.5,438.25,6.2122076440387906,-41423.0
94,13243194,"$2,295,000",2295000.0,,,1165200.0,5.0,4.0,4272.0,8276.4,0.19,40.011448,-105.22617,80303,Boulder,CO,1430 Lodge Ln Boulder CO 80303,FOR_SALE,House for sale,SINGLE_FAMILY,False,False,-1,https://zillow.com/homedetails/1430-Lodge-Ln-Boulder-CO-80303/13243194_zpid/,6.703328661278623,Best,537.2191011235955,277.29447585906917,4004.3999999999996,854.4,1068.0,474.6666666666667,1.9373595505617978,
95,157719420,"$875,000",875000.0,875001.0,3469.0,753200.0,3.0,3.0,3079.0,4405.0,0.10112488521579431,39.9916,-105.130424,80027,Louisville,CO,1136 Summit View Dr Louisville CO 80027,FOR_SALE,House for sale,SINGLE_FAMILY,False,False,-1,https://zillow.com/homedetails/1136-Summit-View-Dr-Louisville-CO-80027/157719420_zpid/,6.897124114477421,Best,284.18317635595974,198.63791146424518,1326.0,1026.3333333333333,1026.3333333333333,513.1666666666666,1.4306593049691458,1.0
96,13189669,"$899,000",899000.0,884730.0,3194.0,670500.0,4.0,2.0,2240.0,6534.0,0.15,39.979496,-105.13374,80027,Louisville,CO,937 La Farge Ave Louisville CO 80027,FOR_SALE,House for sale,SINGLE_FAMILY,False,False,-1,https://zillow.com/homedetails/937-La-Farge-Ave-Louisville-CO-80027/13189669_zpid/,6.155400095057892,Best,401.3392857142857,137.58800122436486,4294.0,560.0,1120.0,373.3333333333333,2.9169642857142857,-14270.0
97,13184667,"$880,000",880000.0,,,673200.0,3.0,2.0,1862.0,6969.6,0.16,39.99637,-105.254265,80305,Boulder,CO,380 32nd St Boulder CO 80305,FOR_SALE,House for sale,SINGLE_FAMILY,False,False,-1,https://zillow.com/homedetails/380-32nd-St-Boulder-CO-80305/13184667_zpid/,6.0241238180721055,Best,472.61009667024706,126.26262626262626,5107.6,620.6666666666666,931.0,372.4,3.743071965628357,
98,13241026,"$5,000,000",5000000.0,4556961.0,5210.0,2333330.0,7.0,7.0,6898.0,1515887.9999999998,34.8,39.996983,-105.148506,80026,Lafayette,CO,8600 Baseline Rd Lafayette CO 80026,FOR_SALE,House for sale,SINGLE_FAMILY,False,False,-1,https://zillow.com/homedetails/8600-Baseline-Rd-Lafayette-CO-80026/13241026_zpid/,6.6417179127256265,Best,724.8477819657871,3.2983967153246154,1508989.9999999998,985.4285714285714,985.4285714285714,492.7142857142857,219.75761090171062,-443039.0
99,13190280,"$1,140,000",1140000.0,1116016.0,2313.0,446400.0,5.0,3.0,2550.0,12196.8,0.27999999999999997,39.9856,-105.13443,80027,Louisville,CO,1600 Circle Dr Louisville CO 80027,FOR_SALE,House for sale,SINGLE_FAMILY,False,False,-1,https://zillow.com/homedetails/1600-Circle-Dr-Louisville-CO-80027/13190280_zpid/,6.443722402097839,Best,447.05882352941177,93.46713892168438,9646.8,510.0,850.0,318.75,4.783058823529411,-23984.0
100,338141017,"$671,640",671640.0,665874.0,3280.0,42000.0,3.0,3.0,1340.0,2115.0,0.04855371900826446,39.950626,-105.16565,80027,Superior,CO,320 Marshall Rd Superior CO 80027,FOR_SALE,New construction,SINGLE_FAMILY,False,False,-1,https://zillow.com/homedetails/320-Marshall-Rd-Superior-CO-80027/338141017_zpid/,3.548509218242717,Best,501.2238805970149,317.56028368794324,775.0,446.6666666666667,446.6666666666667,223.33333333333334,1.578358208955224,-5766.0
101,338141021,"$681,100",681100.0,670553.0,2714.0,41400.0,3.0,3.0,1402.0,2051.0,0.04708448117539027,39.950912,-105.1657,80027,Superior,CO,312 Marshall Rd Superior CO 80027,FOR_SALE,New construction,SINGLE_FAMILY,False,False,-1,https://zillow.com/homedetails/312-Marshall-Rd-Superior-CO-80027/338141021_zpid/,3.560385875990359,Best,485.80599144079883,332.08191126279866,649.0,467.3333333333333,467.3333333333333,233.66666666666666,1.462910128388017,-10547.0
102,13181393,"$2,175,000",2175000.0,2128558.0,7434.0,1251400.0,5.0,3.0,2640.0,7840.8,0.18,39.989178,-105.27214,80305,Boulder,CO,300 Hollyberry Ln Boulder CO 80305,FOR_SALE,House for sale,SINGLE_FAMILY,False,False,-1,https://zillow.com/homedetails/300-Hollyberry-Ln-Boulder-CO-80305/13181393_zpid/,5.991769434512257,Best,823.8636363636364,277.3951637588001,5200.8,528.0,880.0,330.0,2.97,-46442.0
103,13195403,"$3,100,000",3100000.0,,,525500.0,2.0,1.0,1294.0,72745.2,1.67,39.97416,-105.13613,80027,Louisville,CO,425 Grant Ave Louisville CO 80027,FOR_SALE,House for sale,SINGLE_FAMILY,False,False,-1,https://zillow.com/homedetails/425-Grant-Ave-Louisville-CO-80027/13195403_zpid/,5.8032621921347465,Best,2395.6723338485317,42.614495526852636,71451.2,647.0,1294.0,431.3333333333333,56.21731066460587,
104,13180999,"$12,995,000",12995000.0,12248600.0,43381.0,9299100.0,6.0,10.0,9537.0,54450.0,1.25,39.997303,-105.2775,80302,Boulder,CO,333 Bellevue Dr Boulder CO 80302,FOR_SALE,House for sale,SINGLE_FAMILY,False,False,-1,https://zillow.com/homedetails/333-Bellevue-Dr-Boulder-CO-80302/13180999_zpid/,6.619194202268994,Best,1362.5878158750131,238.6593204775023,44913.0,1589.5,953.7,596.0625,5.709342560553633,-746400.0
105,13259109,"$2,400,000",2400000.0,,,1821400.0,6.0,4.0,4376.0,6098.4,0.13999999999999999,40.024334,-105.28798,80304,Boulder,CO,620 North St Boulder CO 80304,FOR_SALE,House for sale,SINGLE_FAMILY,False,False,-1,https://zillow.com/homedetails/620-North-St-Boulder-CO-80304/13259109_zpid/,8.521685857533107,Good,548.4460694698355,393.5458480913027,1722.3999999999996,729.3333333333334,1094.0,437.6,1.3936014625228519,
106,13181520,"$1,100,000",1100000.0,1059279.0,3652.0,901740.0,3.0,2.0,1003.0,10890.0,0.25,40.02286,-105.28487,80304,Boulder,CO,946 Portland Pl Boulder CO 80304,FOR_SALE,House for sale,SINGLE_FAMILY,False,False,-1,https://zillow.com/homedetails/946-Portland-Pl-Boulder-CO-80304/13181520_zpid/,8.35597926007656,Good,1096.7098703888335,101.01010101010101,9887.0,334.3333333333333,501.5,200.6,10.857427716849452,-40721.0
107,2061200174,"$3,495,000",3495000.0,,,,5.0,5.0,3987.0,7840.8,0.18,40.022663,-105.27398,80304,Boulder,CO,1719 Mapleton Ave Boulder CO 80304,FOR_SALE,House for sale,SINGLE_FAMILY,False,False,-1,https://zillow.com/homedetails/1719-Mapleton-Ave-Boulder-CO-80304/2061200174_zpid/,8.099968518836278,Good,876.5989465763732,445.74533210896846,3853.8,797.4,797.4,398.7,1.9665914221218963,
108,2065459293,"$349,900",349900.0,,,,0.0,0.0,,,,39.954327,-105.16705,80027,Louisville,CO,17 W Coal Creek Dr Louisville CO 80027,FOR_SALE,House for sale,SINGLE_FAMILY,False,False,-1,https://zillow.com/homedetails/17-W-Coal-Creek-Dr-Louisville-CO-80027/2065459293_zpid/,3.6806081354044315,Best,,,,,,,,
109,334526673,"$634,950",634950.0,,,56950.0,3.0,3.0,1714.0,2248.0,0.05160697887970615,39.793106,-105.12435,80002,Arvada,CO,11205 W 53rd Ln Arvada CO 80002,FOR_SALE,House for sale,SINGLE_FAMILY,False,False,-1,https://zillow.com/homedetails/11205-W-53rd-Ln-Arvada-CO-80002/334526673_zpid/,9.65937829632742,Good,370.4492415402567,282.45106761565836,534.0,571.3333333333334,571.3333333333334,285.6666666666667,1.3115519253208867,
110,13697946,"$1,100,000",1100000.0,1100003.0,3249.0,630245.0,4.0,4.0,3598.0,13906.0,0.3192378328741965,39.843693,-105.11398,80005,Arvada,CO,10378 W 81st Ave Arvada CO 80005,FOR_SALE,House for sale,SINGLE_FAMILY,False,False,-1,https://zillow.com/homedetails/10378-W-81st-Ave-Arvada-CO-80005/13697946_zpid/,7.224615445014061,Good,305.7254030016676,79.10254566374228,10308.0,899.5,899.5,449.75,3.8649249583101724,3.0
111,61506987,"$1,749,000",1749000.0,1583300.0,7416.0,1228241.0,5.0,5.0,6621.0,10875.0,0.24965564738292012,39.889435,-105.047485,80031,Westminster,CO,4727 W 105th Way Westminster CO 80031,FOR_SALE,Coming soon,SINGLE_FAMILY,False,False,-1,https://zillow.com/homedetails/4727-W-105th-Way-Westminster-CO-80031/61506987_zpid/,8.987322628445915,Good,264.15949252378795,160.82758620689654,4254.0,1324.2,1324.2,662.1,1.642501132759402,-165700.0
112,13706671,"$950,000",950000.0,807300.0,3278.0,568501.0,3.0,3.0,3868.0,7547.0,0.1732552800734619,39.817894,-105.18893,80007,Arvada,CO,16875 W 66th Pl Arvada CO 80007,FOR_SALE,Coming soon,SINGLE_FAMILY,False,False,-1,https://zillow.com/homedetails/16875-W-66th-Pl-Arvada-CO-80007/13706671_zpid/,6.830416375023538,Best,245.60496380558428,125.87783225122566,3679.0,1289.3333333333333,1289.3333333333333,644.6666666666666,1.9511375387797312,-142700.0
113,13744793,"$750,000",750000.0,675300.0,2543.0,512502.0,3.0,2.0,2412.0,13459.0,0.3089761248852158,39.740974,-105.14527,80401,Golden,CO,13065 W 15th Dr Golden CO 80401,FOR_SALE,Coming soon,SINGLE_FAMILY,False,False,-1,https://zillow.com/homedetails/13065-W-15th-Dr-Golden-CO-80401/13744793_zpid/,12.554479356775992,Subpar,310.9452736318408,55.724793818262874,11047.0,804.0,1206.0,482.4,5.580016583747927,-74700.0
114,111083315,"$950,000",950000.0,950057.0,4140.0,689694.0,5.0,4.0,4358.0,6600.0,0.15151515151515152,39.86017,-105.159454,80005,Arvada,CO,14216 W 90th Pl Arvada CO 80005,FOR_SALE,House for sale,SINGLE_FAMILY,False,False,-1,https://zillow.com/homedetails/14216-W-90th-Pl-Arvada-CO-80005/111083315_zpid/,4.752672201984067,Best,217.9899036255163,143.93939393939394,2242.0,871.6,1089.5,484.22222222222223,1.5144561725562184,57.0
115,124226185,"$975,000",975000.0,926800.0,3884.0,717658.0,4.0,4.0,4603.0,7362.0,0.16900826446280992,39.82908,-105.14642,80005,Arvada,CO,13118 W 73rd Ln Arvada CO 80005,FOR_SALE,Coming soon,SINGLE_FAMILY,False,False,-1,https://zillow.com/homedetails/13118-W-73rd-Ln-Arvada-CO-80005/124226185_zpid/,6.92169470342589,Best,211.8183793178362,132.43683781581092,2759.0,1150.75,1150.75,575.375,1.599391701064523,-48200.0
116,119084623,"$799,000",799000.0,799000.0,3575.0,553313.0,5.0,5.0,4578.0,5677.0,0.13032598714416896,39.868534,-105.17265,80007,Arvada,CO,15398 W 95th Ave Arvada CO 80007,FOR_SALE,Coming soon,SINGLE_FAMILY,False,False,-1,https://zillow.com/homedetails/15398-W-95th-Ave-Arvada-CO-80007/119084623_zpid/,3.8745018163882636,Best,174.5303626037571,140.74335036110622,1099.0,915.6,915.6,457.8,1.2400611620795108,0.0
117,13683804,"$525,000",525000.0,567800.0,3200.0,384953.0,5.0,3.0,2352.0,7665.0,0.17596418732782368,39.88113,-105.05622,80020,Westminster,CO,10121 Benton St Westminster CO 80020,FOR_SALE,Coming soon,SINGLE_FAMILY,False,False,-1,https://zillow.com/homedetails/10121-Benton-St-Westminster-CO-80020/13683804_zpid/,8.670749295014257,Good,223.21428571428572,68.4931506849315,5313.0,470.4,784.0,294.0,3.2589285714285716,42800.0
118,13686471,"$540,000",540000.0,565500.0,2639.0,434147.0,3.0,3.0,2704.0,7765.0,0.17825987144168962,39.880405,-105.117744,80021,Westminster,CO,10571 W 101st Pl Westminster CO 80021,FOR_SALE,Coming soon,SINGLE_FAMILY,False,False,-1,https://zillow.com/homedetails/10571-W-101st-Pl-Westminster-CO-80021/13686471_zpid/,5.620060798806644,Best,199.7041420118343,69.5428203477141,5061.0,901.3333333333334,901.3333333333334,450.6666666666667,2.871671597633136,25500.0
119,114441696,"$685,000",685000.0,702564.0,3844.0,480103.0,3.0,2.0,1838.0,9141.0,0.20984848484848484,39.763687,-105.05864,80212,Wheat Ridge,CO,5544 W 33rd Ave Wheat Ridge CO 80212,FOR_SALE,House for sale,SINGLE_FAMILY,False,False,-1,https://zillow.com/homedetails/5544-W-33rd-Ave-Wheat-Ridge-CO-80212/114441696_zpid/,13.299655370297609,Subpar,372.68770402611534,74.93709659774642,7303.0,612.6666666666666,919.0,367.6,4.973340587595212,17564.0
120,13712470,"$495,000",495000.0,508631.0,2299.0,356346.0,3.0,2.0,1962.0,5022.0,0.11528925619834711,39.825737,-105.06239,80003,Arvada,CO,7190 Fenton Ct Arvada CO 80003,FOR_SALE,House for sale,SINGLE_FAMILY,False,False,-1,https://zillow.com/homedetails/7190-Fenton-Ct-Arvada-CO-80003/13712470_zpid/,10.118556859333282,Middle,252.29357798165137,98.5663082437276,3060.0,654.0,981.0,392.4,2.5596330275229358,13631.0
121,13727668,"$600,000",600000.0,612927.0,2500.0,443556.0,3.0,2.0,1270.0,7813.0,0.17936179981634526,39.800568,-105.08697,80002,Arvada,CO,5702 Ammons St Arvada CO 80002,FOR_SALE,House for sale,SINGLE_FAMILY,False,False,-1,https://zillow.com/homedetails/5702-Ammons-St-Arvada-CO-80002/13727668_zpid/,10.374235697211637,Middle,472.4409448818898,76.79508511455266,6543.0,423.3333333333333,635.0,254.0,6.151968503937008,12927.0
122,13706525,"$850,000",850000.0,860241.0,3997.0,546444.0,4.0,3.0,3360.0,6098.4,0.13999999999999999,39.820454,-105.184586,80007,Arvada,CO,16488 W 67th Cir Arvada CO 80007,FOR_SALE,House for sale,SINGLE_FAMILY,False,False,-1,https://zillow.com/homedetails/16488-W-67th-Cir-Arvada-CO-80007/13706525_zpid/,6.706313880659226,Best,252.97619047619048,139.38082119900304,2738.3999999999996,840.0,1120.0,480.0,1.815,10241.0
123,13713755,"$535,000",535000.0,554397.0,3200.0,362258.0,4.0,3.0,2240.0,7870.0,0.18067033976124885,39.81567,-105.068,80003,Arvada,CO,6560 Marshall St Arvada CO 80003,FOR_SALE,House for sale,SINGLE_FAMILY,False,False,-1,https://zillow.com/homedetails/6560-Marshall-St-Arvada-CO-80003/13713755_zpid/,10.332476250881388,Middle,238.83928571428572,67.97966963151207,5630.0,560.0,746.6666666666666,320.0,3.513392857142857,19397.0
124,13732143,"$560,000",560000.0,572450.0,2500.0,400129.0,3.0,1.0,1313.0,15682.000000000002,0.3600091827364555,39.793114,-105.16399,80002,Arvada,CO,5325 Howell St Arvada CO 80002,FOR_SALE,House for sale,SINGLE_FAMILY,False,False,-1,https://zillow.com/homedetails/5325-Howell-St-Arvada-CO-80002/13732143_zpid/,8.818831215602724,Good,426.5041888804265,35.7097309016707,14369.000000000002,437.6666666666667,1313.0,328.25,11.943640517897945,12450.0
125,13730429,"$695,000",695000.0,709479.0,2962.0,497229.0,4.0,4.0,2150.0,9583.2,0.22000000000000003,39.793396,-105.10814,80002,Arvada,CO,9903 Ridge Rd Arvada CO 80002,FOR_SALE,House for sale,SINGLE_FAMILY,False,False,-1,https://zillow.com/homedetails/9903-Ridge-Rd-Arvada-CO-80002/13730429_zpid/,10.092636851971884,Middle,323.25581395348837,72.52274814258284,7433.200000000001,537.5,537.5,268.75,4.457302325581396,14479.0
126,13718226,"$645,000",645000.0,655932.0,3097.0,444609.0,5.0,3.0,2552.0,8500.0,0.19513314967860423,39.818573,-105.11716,80004,Arvada,CO,6728 Newman St Arvada CO 80004,FOR_SALE,House for sale,SINGLE_FAMILY,False,False,-1,https://zillow.com/homedetails/6728-Newman-St-Arvada-CO-80004/13718226_zpid/,8.398747078279085,Good,252.74294670846396,75.88235294117646,5948.0,510.4,850.6666666666666,319.0,3.330721003134796,10932.0
127,13733704,"$767,500",767500.0,777323.0,2600.0,515368.0,3.0,2.0,2895.0,7206.0,0.16542699724517906,39.772285,-105.11226,80033,Wheat Ridge,CO,4036 Lee Cir Wheat Ridge CO 80033,FOR_SALE,House for sale,SINGLE_FAMILY,False,False,-1,https://zillow.com/homedetails/4036-Lee-Cir-Wheat-Ridge-CO-80033/13733704_zpid/,11.228852976683632,Middle,265.11226252158895,106.50846516791563,4311.0,965.0,1447.5,579.0,2.489119170984456,9823.0
128,79993701,"$759,000",759000.0,768715.0,2858.0,535550.0,2.0,2.0,3541.0,3600.0,0.08264462809917356,39.83317,-105.17067,80007,Arvada,CO,7575 Loveland St Arvada CO 80007,FOR_SALE,House for sale,SINGLE_FAMILY,False,False,-1,https://zillow.com/homedetails/7575-Loveland-St-Arvada-CO-80007/79993701_zpid/,6.091605077106884,Best,214.34622987856537,210.83333333333334,59.0,1770.5,1770.5,885.25,1.0166619598983337,9715.0
129,2061788772,$0+,0.0,,,,,0.0,,,,39.86818,-105.191696,80007,Arvada,CO,candelas townhomes,FOR_SALE,New construction,SINGLE_FAMILY,False,False,-1,https://zillow.com/community/candelas-townhomes/29757145_plid/,3.433270903602161,Best,,,,,,,,
130,13732208,"$585,000",585000.0,600891.0,2500.0,352242.0,3.0,1.0,1232.0,10454.4,0.24,39.787373,-105.159355,80403,Golden,CO,14185 W 50th Ave Golden CO 80403,FOR_SALE,House for sale,SINGLE_FAMILY,False,False,-1,https://zillow.com/homedetails/14185-W-50th-Ave-Golden-CO-80403/13732208_zpid/,9.271663968016641,Good,474.8376623376623,55.9573002754821,9222.4,410.6666666666667,1232.0,308.0,8.485714285714286,15891.0
131,13707686,"$895,000",895000.0,904040.0,4058.0,580256.0,4.0,4.0,3260.0,7958.0,0.18269054178145086,39.808064,-105.18796,80403,Arvada,CO,6127 Russell Ct Arvada CO 80403,FOR_SALE,House for sale,SINGLE_FAMILY,False,False,-1,https://zillow.com/homedetails/6127-Russell-Ct-Arvada-CO-80403/13707686_zpid/,7.507228423955231,Good,274.5398773006135,112.46544357878864,4698.0,815.0,815.0,407.5,2.4411042944785275,9040.0
132,13728877,"$649,900",649900.0,674896.0,2850.0,468389.0,3.0,2.0,2291.0,26136.0,0.6,39.800835,-105.070656,80002,Arvada,CO,6701 Grandview Ave Arvada CO 80002,FOR_SALE,House for sale,SINGLE_FAMILY,False,False,-1,https://zillow.com/homedetails/6701-Grandview-Ave-Arvada-CO-80002/13728877_zpid/,10.941660587704524,Middle,283.6752509821039,24.86608509335782,23845.0,763.6666666666666,1145.5,458.2,11.408118725447403,24996.0
133,13732957,"$579,000",579000.0,587532.0,1999.0,372580.0,2.0,2.0,1079.0,18730.8,0.43,39.78111,-105.11516,80033,Wheat Ridge,CO,10465 W 46th Ave Wheat Ridge CO 80033,FOR_SALE,House for sale,SINGLE_FAMILY,False,False,-1,https://zillow.com/homedetails/10465-W-46th-Ave-Wheat-Ridge-CO-80033/13732957_zpid/,10.62101247349633,Middle,536.6079703429101,30.911653533218015,17651.8,539.5,539.5,269.75,17.35940685820204,8532.0
134,13740092,"$750,000",750000.0,759599.0,2650.0,458401.0,3.0,2.0,1972.0,12665.000000000002,0.2907483930211203,39.763645,-105.094734,80033,Wheat Ridge,CO,8760 W 34th Ave Wheat Ridge CO 80033,FOR_SALE,House for sale,SINGLE_FAMILY,False,False,-1,https://zillow.com/homedetails/8760-W-34th-Ave-Wheat-Ridge-CO-80033/13740092_zpid/,12.210251231357418,Middle,380.32454361054766,59.21831819976312,10693.000000000002,657.3333333333334,986.0,394.4,6.422413793103449,9599.0
135,13682637,"$1,100,000",1100000.0,1078800.0,4408.0,760612.0,5.0,3.0,4176.0,32567.0,0.7476354453627181,39.886833,-105.08512,80021,Westminster,CO,7921 W 104th Pl Westminster CO 80021,FOR_SALE,Coming soon,SINGLE_FAMILY,False,False,-1,https://zillow.com/homedetails/7921-W-104th-Pl-Westminster-CO-80021/13682637_zpid/,7.089104792809451,Good,263.40996168582376,33.776522246445786,28391.0,835.2,1392.0,522.0,7.798611111111111,-21200.0
136,13712478,"$500,000",500000.0,510638.0,2780.0,383789.0,3.0,3.0,2332.0,4471.0,0.10264003673094582,39.82554,-105.061935,80003,Arvada,CO,7153 Fenton Cir Arvada CO 80003,FOR_SALE,House for sale,SINGLE_FAMILY,False,False,-1,https://zillow.com/homedetails/7153-Fenton-Cir-Arvada-CO-80003/13712478_zpid/,10.145994769309281,Middle,214.4082332761578,111.83180496533214,2139.0,777.3333333333334,777.3333333333334,388.6666666666667,1.917238421955403,10638.0
137,13684202,"$885,000",885000.0,873200.0,4134.0,636839.0,6.0,5.0,4955.0,11761.2,0.27,39.87788,-105.069695,80021,Westminster,CO,6565 W 99th Ave Westminster CO 80021,FOR_SALE,Coming soon,SINGLE_FAMILY,False,False,-1,https://zillow.com/homedetails/6565-W-99th-Ave-Westminster-CO-80021/13684202_zpid/,8.053772891188146,Good,178.6074672048436,75.24742373227221,6806.200000000001,825.8333333333334,991.0,450.45454545454544,2.3736024217961655,-11800.0
138,13689473,"$510,000",510000.0,519272.0,2710.0,318164.0,3.0,2.0,1622.0,13313.000000000002,0.30562442607897156,39.864704,-105.08589,80021,Westminster,CO,8155 W 93rd Cir Westminster CO 80021,FOR_SALE,House for sale,SINGLE_FAMILY,False,False,-1,https://zillow.com/homedetails/8155-W-93rd-Cir-Westminster-CO-80021/13689473_zpid/,7.614621582018663,Good,314.42663378545006,38.30842034102005,11691.000000000002,540.6666666666666,811.0,324.4,8.207768187422936,9272.0
139,13735348,"$500,000",500000.0,511111.0,2400.0,375820.0,2.0,1.0,1214.0,9479.0,0.2176078971533517,39.77859,-105.08625,80033,Wheat Ridge,CO,8005 W 45th Ave Wheat Ridge CO 80033,FOR_SALE,House for sale,SINGLE_FAMILY,False,False,-1,https://zillow.com/homedetails/8005-W-45th-Ave-Wheat-Ridge-CO-80033/13735348_zpid/,11.595316584108152,Middle,411.8616144975288,52.74818018778352,8265.0,607.0,1214.0,404.6666666666667,7.808072487644152,11111.0
140,13699539,"$900,000",900000.0,905454.0,3294.0,644246.0,6.0,4.0,4516.0,8604.0,0.1975206611570248,39.83627,-105.13706,80005,Arvada,CO,7576 Urban St Arvada CO 80005,FOR_SALE,House for sale,SINGLE_FAMILY,False,False,-1,https://zillow.com/homedetails/7576-Urban-St-Arvada-CO-80005/13699539_zpid/,6.786379821146793,Best,199.29140832595218,104.60251046025104,4088.0,752.6666666666666,1129.0,451.6,1.9052258635961028,5454.0
141,13736766,"$715,000",715000.0,733333.0,2850.0,411590.0,4.0,2.0,1450.0,6220.0,0.14279155188246098,39.770996,-105.06601,80033,Wheat Ridge,CO,3990 Jay St Wheat Ridge CO 80033,FOR_SALE,House for sale,SINGLE_FAMILY,False,False,-1,https://zillow.com/homedetails/3990-Jay-St-Wheat-Ridge-CO-80033/13736766_zpid/,12.660742722519569,Subpar,493.1034482758621,114.95176848874598,4770.0,362.5,725.0,241.66666666666666,4.289655172413793,18333.0
142,12978723,"$739,000",739000.0,746116.0,3800.0,507101.0,5.0,3.0,3016.0,8712.0,0.2,39.881313,-105.0483,80031,Westminster,CO,4831 W 102nd Ave Westminster CO 80031,FOR_SALE,House for sale,SINGLE_FAMILY,False,False,-1,https://zillow.com/homedetails/4831-W-102nd-Ave-Westminster-CO-80031/12978723_zpid/,9.07253580581555,Good,245.026525198939,84.8255280073462,5696.0,603.2,1005.3333333333334,377.0,2.8885941644562334,7116.0
143,13736144,"$450,000",450000.0,456631.0,2264.0,425403.0,2.0,1.0,1550.0,11326.0,0.26000918273645546,39.781628,-105.07175,80033,Wheat Ridge,CO,4680 Pierce St Wheat Ridge CO 80033,FOR_SALE,House for sale,SINGLE_FAMILY,False,False,-1,https://zillow.com/homedetails/4680-Pierce-St-Wheat-Ridge-CO-80033/13736144_zpid/,11.896917698436095,Middle,290.3225806451613,39.73159102948967,9776.0,775.0,1550.0,516.6666666666666,7.307096774193548,6631.0
144,13681476,"$450,000",450000.0,458181.0,2500.0,278462.0,3.0,2.0,1144.0,5603.0,0.12862718089990818,39.888176,-105.112755,80021,Westminster,CO,10620 Moore Ct Westminster CO 80021,FOR_SALE,House for sale,SINGLE_FAMILY,False,False,-1,https://zillow.com/homedetails/10620-Moore-Ct-Westminster-CO-80021/13681476_zpid/,5.663297700220348,Best,393.35664335664336,80.31411743708728,4459.0,381.3333333333333,572.0,228.8,4.8977272727272725,8181.0
145,123602829,"$885,000",885000.0,,,47837.0,3.0,4.0,2583.0,6969.6,0.16,39.866642,-105.20512,80007,Arvada,CO,9394 Blanca St Arvada CO 80007,FOR_SALE,House for sale,SINGLE_FAMILY,False,False,-1,https://zillow.com/homedetails/9394-Blanca-St-Arvada-CO-80007/123602829_zpid/,3.3654277416964065,Best,342.62485481997675,126.98002754820936,4386.6,861.0,645.75,369.0,2.6982578397212547,
146,13715708,"$575,000",575000.0,595847.0,3077.0,437980.0,4.0,3.0,2209.0,10450.0,0.2398989898989899,39.814228,-105.07577,80003,Arvada,CO,6500 Saulsbury Ct Arvada CO 80003,FOR_SALE,House for sale,SINGLE_FAMILY,False,False,-1,https://zillow.com/homedetails/6500-Saulsbury-Ct-Arvada-CO-80003/13715708_zpid/,10.096353028018852,Middle,260.2987777274785,55.02392344497608,8241.0,552.25,736.3333333333334,315.57142857142856,4.73064735174287,20847.0
147,12979080,"$720,000",720000.0,629600.0,3140.0,459024.0,3.0,4.0,2723.0,7200.0,0.1652892561983471,39.87773,-105.05057,80031,Westminster,CO,9977 Wagner Ln Westminster CO 80031,FOR_SALE,House for sale,SINGLE_FAMILY,False,False,-1,https://zillow.com/homedetails/9977-Wagner-Ln-Westminster-CO-80031/12979080_zpid/,9.023788242856185,Good,264.41424899008445,100.0,4477.0,907.6666666666666,680.75,389.0,2.6441424899008448,-90400.0
148,13724437,"$599,000",599000.0,615271.0,3099.0,410922.0,6.0,2.0,2212.0,8354.0,0.19178145087235995,39.80771,-105.121216,80004,Arvada,CO,6085 Parfet St Arvada CO 80004,FOR_SALE,House for sale,SINGLE_FAMILY,False,False,-1,https://zillow.com/homedetails/6085-Parfet-St-Arvada-CO-80004/13724437_zpid/,8.884760747199383,Good,270.79566003616634,71.70217859707924,6142.0,368.6666666666667,1106.0,276.5,3.7766726943942133,16271.0
149,13678109,"$1,275,000",1275000.0,1271069.0,5239.0,917185.0,5.0,5.0,4557.0,52707.6,1.21,39.841293,-105.178185,80007,Arvada,CO,7959 Nile Ct Arvada CO 80007,FOR_SALE,House for sale,SINGLE_FAMILY,False,False,-1,https://zillow.com/homedetails/7959-Nile-Ct-Arvada-CO-80007/13678109_zpid/,5.424150363960471,Best,279.7893350888743,24.190059877512923,48150.6,911.4,911.4,455.7,11.566293614219882,-3931.0
150,13700266,"$670,000",670000.0,681355.0,2934.0,512362.0,5.0,4.0,2803.0,10544.0,0.24205693296602387,39.84015,-105.12386,80005,Arvada,CO,7898 Quail St Arvada CO 80005,FOR_SALE,House for sale,SINGLE_FAMILY,False,False,-1,https://zillow.com/homedetails/7898-Quail-St-Arvada-CO-80005/13700266_zpid/,7.028237517869919,Good,239.02961113093116,63.54324734446131,7741.0,560.6,700.75,311.44444444444446,3.7616839100963255,11355.0
151,13737881,"$874,500",874500.0,889438.0,2999.0,647304.0,3.0,3.0,3045.0,11533.0,0.26476124885215796,39.76628,-105.071365,80033,Wheat Ridge,CO,3515 Otis St Wheat Ridge CO 80033,FOR_SALE,House for sale,SINGLE_FAMILY,False,False,-1,https://zillow.com/homedetails/3515-Otis-St-Wheat-Ridge-CO-80033/13737881_zpid/,12.74798872221176,Subpar,287.192118226601,75.82589092170294,8488.0,1015.0,1015.0,507.5,3.78752052545156,14938.0
152,13707710,"$1,025,000",1025000.0,1025005.0,4188.0,693200.0,4.0,3.0,5527.0,13688.0,0.31423324150596876,39.805805,-105.18742,80403,Arvada,CO,16700 W 60th Dr Arvada CO 80403,FOR_SALE,House for sale,SINGLE_FAMILY,False,False,-1,https://zillow.com/homedetails/16700-W-60th-Dr-Arvada-CO-80403/13707710_zpid/,7.665920133204406,Good,185.45322960014474,74.88310929281123,8161.0,1381.75,1842.3333333333333,789.5714285714286,2.4765695675773474,5.0
153,13717062,"$700,000",700000.0,653200.0,3099.0,517234.0,5.0,3.0,2676.0,11325.6,0.26,39.820538,-105.11408,80004,Arvada,CO,6837 Miller St Arvada CO 80004,FOR_SALE,Coming soon,SINGLE_FAMILY,False,False,-1,https://zillow.com/homedetails/6837-Miller-St-Arvada-CO-80004/13717062_zpid/,8.393429508802992,Good,261.5844544095665,61.80687998869817,8649.6,535.2,892.0,334.5,4.232286995515695,-46800.0
154,52963869,"$1,385,000",1385000.0,1398849.0,4776.0,919900.0,5.0,5.0,3222.0,3659.0,0.08399908172635445,39.766823,-105.04859,80212,Denver,CO,4799 W 36th Ave Denver CO 80212,FOR_SALE,House for sale,SINGLE_FAMILY,False,False,-1,https://zillow.com/homedetails/4799-W-36th-Ave-Denver-CO-80212/52963869_zpid/,13.470595193681252,Subpar,429.8572315332092,378.51872096201146,437.0,644.4,644.4,322.2,1.1356300434512725,13849.0
155,13703789,"$425,000",425000.0,440409.0,2728.0,326356.0,4.0,2.0,1412.0,7102.0,0.1630394857667585,39.84046,-105.06049,80003,Arvada,CO,7948 Fenton St Arvada CO 80003,FOR_SALE,House for sale,SINGLE_FAMILY,False,False,-1,https://zillow.com/homedetails/7948-Fenton-St-Arvada-CO-80003/13703789_zpid/,9.617699907923672,Good,300.9915014164306,59.84229794424106,5690.0,353.0,706.0,235.33333333333334,5.029745042492918,15409.0
156,13713936,"$500,000",500000.0,518128.0,2500.0,392503.0,3.0,2.0,2528.0,7641.0,0.17541322314049587,39.819206,-105.05506,80003,Arvada,CO,6767 Ames St Arvada CO 80003,FOR_SALE,House for sale,SINGLE_FAMILY,False,False,-1,https://zillow.com/homedetails/6767-Ames-St-Arvada-CO-80003/13713936_zpid/,10.702649422555101,Middle,197.78481012658227,65.43646119617851,5113.0,842.6666666666666,1264.0,505.6,3.0225474683544302,18128.0
157,13699473,"$964,900",964900.0,968969.0,4206.0,673493.0,5.0,4.0,4552.0,9477.0,0.2175619834710744,39.83639,-105.135864,80005,Arvada,CO,12157 W 75th Ln Arvada CO 80005,FOR_SALE,House for sale,SINGLE_FAMILY,False,False,-1,https://zillow.com/homedetails/12157-W-75th-Ln-Arvada-CO-80005/13699473_zpid/,6.817975342183052,Best,211.97275922671352,101.81492033343885,4925.0,910.4,1138.0,505.77777777777777,2.0819420035149383,4069.0
158,13698721,"$825,000",825000.0,832279.0,3249.0,565786.0,5.0,4.0,2791.0,8276.4,0.19,39.846947,-105.12953,80005,Arvada,CO,11628 W 82nd Pl Arvada CO 80005,FOR_SALE,House for sale,SINGLE_FAMILY,False,False,-1,https://zillow.com/homedetails/11628-W-82nd-Pl-Arvada-CO-80005/13698721_zpid/,6.479813078946754,Best,295.59297742744536,99.68102073365232,5485.4,558.2,697.75,310.1111111111111,2.965388749552132,7279.0
159,12993293,"$515,000",515000.0,516122.0,2529.0,292674.0,4.0,2.0,1728.0,7223.0,0.16581726354453627,39.849316,-105.043434,80031,Westminster,CO,8381 Oakwood St Westminster CO 80031,FOR_SALE,House for sale,SINGLE_FAMILY,False,False,-1,https://zillow.com/homedetails/8381-Oakwood-St-Westminster-CO-80031/12993293_zpid/,10.103835977660689,Middle,298.0324074074074,71.30001384466289,5495.0,432.0,864.0,288.0,4.179976851851852,1122.0
160,13736954,"$630,000",630000.0,654190.0,2764.0,380491.0,3.0,2.0,1330.0,6650.0,0.1526629935720845,39.773205,-105.05986,80212,Denver,CO,4114 Fenton St Denver CO 80212,FOR_SALE,House for sale,SINGLE_FAMILY,False,False,-1,https://zillow.com/homedetails/4114-Fenton-St-Denver-CO-80212/13736954_zpid/,12.7476116741508,Subpar,473.6842105263158,94.73684210526316,5320.0,443.3333333333333,665.0,266.0,5.0,24190.0
161,13730636,"$484,900",484900.0,495681.0,2199.0,332405.0,2.0,2.0,966.0,6973.0,0.16007805325987143,39.79294,-105.10624,80002,Arvada,CO,9707 W 53rd Pl Arvada CO 80002,FOR_SALE,House for sale,SINGLE_FAMILY,False,False,-1,https://zillow.com/homedetails/9707-W-53rd-Pl-Arvada-CO-80002/13730636_zpid/,10.175012475515004,Middle,501.96687370600415,69.5396529470816,6007.0,483.0,483.0,241.5,7.2184265010351965,10781.0
162,13717611,"$650,000",650000.0,661818.0,2600.0,407791.0,4.0,3.0,2410.0,8712.0,0.2,39.820145,-105.12046,80004,Arvada,CO,10870 W 68th Pl Arvada CO 80004,FOR_SALE,House for sale,SINGLE_FAMILY,False,False,-1,https://zillow.com/homedetails/10870-W-68th-Pl-Arvada-CO-80004/13717611_zpid/,8.206215362579234,Good,269.7095435684647,74.60973370064279,6302.0,602.5,803.3333333333334,344.2857142857143,3.6149377593360996,11818.0
163,13728263,"$600,000",600000.0,622857.0,3294.0,369665.0,4.0,2.0,1850.0,10218.0,0.23457300275482093,39.808163,-105.05537,80003,Arvada,CO,6110 Benton St Arvada CO 80003,FOR_SALE,House for sale,SINGLE_FAMILY,False,False,-1,https://zillow.com/homedetails/6110-Benton-St-Arvada-CO-80003/13728263_zpid/,11.17824039869925,Middle,324.3243243243243,58.71990604815032,8368.0,462.5,925.0,308.3333333333333,5.523243243243243,22857.0
164,13702756,"$540,000",540000.0,549152.0,3293.0,438472.0,4.0,3.0,3588.0,3163.0,0.07261248852157944,39.838394,-105.087364,80005,Arvada,CO,8016 W 78th Way Arvada CO 80005,FOR_SALE,House for sale,SINGLE_FAMILY,False,False,-1,https://zillow.com/homedetails/8016-W-78th-Way-Arvada-CO-80005/13702756_zpid/,8.535775909501352,Good,150.50167224080266,170.72399620613342,-425.0,897.0,1196.0,512.5714285714286,0.8815496098104794,9152.0
165,13699680,"$837,000",837000.0,843438.0,3200.0,602072.0,5.0,4.0,3627.0,8712.0,0.2,39.831284,-105.13024,80005,Arvada,CO,11687 W 74th Way Arvada CO 80005,FOR_SALE,House for sale,SINGLE_FAMILY,False,False,-1,https://zillow.com/homedetails/11687-W-74th-Way-Arvada-CO-80005/13699680_zpid/,7.27945793476068,Good,230.76923076923077,96.07438016528926,5085.0,725.4,906.75,403.0,2.401985111662531,6438.0
166,13293649,"$949,000",949000.0,976099.0,3785.0,662700.0,5.0,3.0,2822.0,6250.0,0.14348025711662074,39.786312,-105.04243,80212,Denver,CO,4934 Stuart St Denver CO 80212,FOR_SALE,House for sale,SINGLE_FAMILY,False,False,-1,https://zillow.com/homedetails/4934-Stuart-St-Denver-CO-80212/13293649_zpid/,12.70935391044288,Subpar,336.28632175761874,151.84,3428.0,564.4,940.6666666666666,352.75,2.2147413182140325,27099.0
167,13744045,"$1,100,000",1100000.0,1100009.0,4218.0,654425.0,4.0,4.0,3720.0,12183.0,0.2796831955922865,39.75219,-105.134476,80215,Lakewood,CO,2368 Van Gordon St Lakewood CO 80215,FOR_SALE,House for sale,SINGLE_FAMILY,False,False,-1,https://zillow.com/homedetails/2368-Van-Gordon-St-Lakewood-CO-80215/13744045_zpid/,12.003279471305634,Middle,295.6989247311828,90.28974800952146,8463.0,930.0,930.0,465.0,3.275,9.0
168,334525876,"$1,600,000",1600000.0,1600003.0,6825.0,347613.0,4.0,4.0,3550.0,9637.0,0.22123507805325987,39.757923,-105.07647,80033,Wheat Ridge,CO,2874 Teller St Wheat Ridge CO 80033,FOR_SALE,House for sale,SINGLE_FAMILY,False,False,-1,https://zillow.com/homedetails/2874-Teller-St-Wheat-Ridge-CO-80033/334525876_zpid/,13.064866480969677,Subpar,450.7042253521127,166.0267718169555,6087.0,887.5,887.5,443.75,2.7146478873239435,3.0
169,13691997,"$675,000",675000.0,689516.0,2999.0,481377.0,5.0,4.0,3577.0,8322.0,0.19104683195592287,39.8478,-105.07054,80003,Arvada,CO,8369 Quay Dr Arvada CO 80003,FOR_SALE,House for sale,SINGLE_FAMILY,False,False,-1,https://zillow.com/homedetails/8369-Quay-Dr-Arvada-CO-80003/13691997_zpid/,8.89702258803884,Good,188.70561923399498,81.11031002162942,4745.0,715.4,894.25,397.44444444444446,2.326530612244898,14516.0
170,13293313,"$1,250,000",1250000.0,1268115.0,3099.0,526500.0,5.0,2.0,2824.0,18747.0,0.4303719008264463,39.789085,-105.04304,80212,Denver,CO,4300 W 51st Ave Denver CO 80212,FOR_SALE,House for sale,SINGLE_FAMILY,False,False,-1,https://zillow.com/homedetails/4300-W-51st-Ave-Denver-CO-80212/13293313_zpid/,12.552671880762816,Subpar,442.63456090651556,66.6773350402731,15923.0,564.8,1412.0,403.42857142857144,6.638456090651558,18115.0
171,13749576,"$600,000",600000.0,615157.0,2294.0,394371.0,3.0,1.0,1037.0,5925.0,0.13601928374655647,39.748886,-105.068825,80214,Edgewater,CO,2075 Marshall St Edgewater CO 80214,FOR_SALE,House for sale,SINGLE_FAMILY,False,False,-1,https://zillow.com/homedetails/2075-Marshall-St-Edgewater-CO-80214/13749576_zpid/,13.809637839146786,Subpar,578.5920925747348,101.26582278481013,4888.0,345.6666666666667,1037.0,259.25,5.713596914175506,15157.0
172,118614405,"$2,200,000",2200000.0,2197968.0,2250.0,872000.0,5.0,4.0,4847.0,123274.8,2.83,39.80431,-105.193954,80403,Golden,CO,5945 Easley Rd Golden CO 80403,FOR_SALE,House for sale,SINGLE_FAMILY,False,False,-1,https://zillow.com/homedetails/5945-Easley-Rd-Golden-CO-80403/118614405_zpid/,7.712713807926767,Good,453.8890035073241,17.846307598957775,118427.8,969.4,1211.75,538.5555555555555,25.4332164225294,-2032.0
173,13699020,"$650,000",650000.0,661818.0,3639.0,504130.0,5.0,4.0,2976.0,9355.0,0.21476124885215794,39.832603,-105.15483,80005,Arvada,CO,7515 Devinney Ct Arvada CO 80005,FOR_SALE,House for sale,SINGLE_FAMILY,False,False,-1,https://zillow.com/homedetails/7515-Devinney-Ct-Arvada-CO-80005/13699020_zpid/,6.48812567947993,Best,218.41397849462365,69.4815606627472,6379.0,595.2,744.0,330.6666666666667,3.143481182795699,11818.0
174,13687774,"$825,000",825000.0,834492.0,3234.0,556965.0,4.0,3.0,3063.0,6825.0,0.15668044077134985,39.87012,-105.09403,80021,Westminster,CO,9456 Cody Dr Westminster CO 80021,FOR_SALE,House for sale,SINGLE_FAMILY,False,False,-1,https://zillow.com/homedetails/9456-Cody-Dr-Westminster-CO-80021/13687774_zpid/,7.061108087784331,Good,269.3437806072478,120.87912087912088,3762.0,765.75,1021.0,437.57142857142856,2.22820763956905,9492.0
175,121927120,"$1,125,000",1125000.0,1125002.0,5688.0,768588.0,7.0,7.0,6178.0,15444.0,0.35454545454545455,39.849854,-105.18744,80007,Arvada,CO,8487 Rogers Loop Arvada CO 80007,FOR_SALE,House for sale,SINGLE_FAMILY,False,False,-1,https://zillow.com/homedetails/8487-Rogers-Loop-Arvada-CO-80007/121927120_zpid/,4.705753164367477,Best,182.09776626740046,72.84382284382285,9266.0,882.5714285714286,882.5714285714286,441.2857142857143,2.4998381353188734,2.0
176,13737056,"$595,000",595000.0,614039.0,2500.0,399854.0,3.0,1.0,1850.0,6650.0,0.1526629935720845,39.773495,-105.05408,80212,Denver,CO,4118 Ames St Denver CO 80212,FOR_SALE,House for sale,SINGLE_FAMILY,False,False,-1,https://zillow.com/homedetails/4118-Ames-St-Denver-CO-80212/13737056_zpid/,12.930979517983188,Subpar,321.6216216216216,89.47368421052632,4800.0,616.6666666666666,1850.0,462.5,3.5945945945945947,19039.0
177,13741998,"$1,065,000",1065000.0,1065008.0,3380.0,685655.0,5.0,4.0,4627.0,12370.0,0.2839761248852158,39.76877,-105.14008,80033,Wheat Ridge,CO,12537 W 38th Dr Wheat Ridge CO 80033,FOR_SALE,House for sale,SINGLE_FAMILY,False,False,-1,https://zillow.com/homedetails/12537-W-38th-Dr-Wheat-Ridge-CO-80033/13741998_zpid/,10.826691327473132,Middle,230.17073697860386,86.09539207760712,7743.0,925.4,1156.75,514.1111111111111,2.673438513075427,8.0
178,89039787,"$998,000",998000.0,998005.0,4140.0,653069.0,4.0,4.0,3771.0,7679.0,0.1762855831037649,39.853638,-105.15359,80005,Arvada,CO,8712 Deframe Ct Arvada CO 80005,FOR_SALE,House for sale,SINGLE_FAMILY,False,False,-1,https://zillow.com/homedetails/8712-Deframe-Ct-Arvada-CO-80005/89039787_zpid/,5.3002373462228185,Best,264.6512861309997,129.96483917176715,3908.0,942.75,942.75,471.375,2.036329885971891,5.0
179,334526346,"$639,950",639950.0,,,56950.0,2.0,3.0,1714.0,1938.0,0.044490358126721766,39.793404,-105.12409,80002,Arvada,CO,5336 Quail Way Arvada CO 80002,FOR_SALE,New construction,SINGLE_FAMILY,False,False,-1,https://zillow.com/homedetails/5336-Quail-Way-Arvada-CO-80002/334526346_zpid/,9.648232432126823,Good,373.3663943990665,330.21155830753355,224.0,857.0,571.3333333333334,342.8,1.130688448074679,
180,13697205,"$625,000",625000.0,634634.0,2799.0,385537.0,3.0,3.0,2501.0,3484.8,0.08,39.850857,-105.11592,80005,Arvada,CO,10490 W 85th Pl Arvada CO 80005,FOR_SALE,House for sale,SINGLE_FAMILY,False,False,-1,https://zillow.com/homedetails/10490-W-85th-Pl-Arvada-CO-80005/13697205_zpid/,6.818287474148513,Best,249.90003998400638,179.35032139577592,983.8000000000002,833.6666666666666,833.6666666666666,416.8333333333333,1.393362654938025,9634.0
181,13715392,"$559,000",559000.0,579267.0,2331.0,354556.0,4.0,2.0,1802.0,9181.0,0.21076675849403123,39.81989,-105.07369,80003,Arvada,CO,6780 Quay St Arvada CO 80003,FOR_SALE,House for sale,SINGLE_FAMILY,False,False,-1,https://zillow.com/homedetails/6780-Quay-St-Arvada-CO-80003/13715392_zpid/,9.91309371623412,Middle,310.2108768035516,60.88661365864285,7379.0,450.5,901.0,300.3333333333333,5.094894561598224,20267.0
182,13706286,"$785,000",785000.0,797234.0,2505.0,390590.0,2.0,2.0,1508.0,5621.0,0.12904040404040404,39.817074,-105.17189,80007,Arvada,CO,15374 W 67th Ave Arvada CO 80007,FOR_SALE,House for sale,SINGLE_FAMILY,False,False,-1,https://zillow.com/homedetails/15374-W-67th-Ave-Arvada-CO-80007/13706286_zpid/,7.114356505095349,Good,520.5570291777188,139.65486568226294,4113.0,754.0,754.0,377.0,3.727453580901857,12234.0
183,13716819,"$800,000",800000.0,809174.0,2500.0,484963.0,5.0,3.0,2628.0,10454.0,0.23999081726354454,39.815845,-105.095825,80004,Arvada,CO,6535 Estes St Arvada CO 80004,FOR_SALE,House for sale,SINGLE_FAMILY,False,False,-1,https://zillow.com/homedetails/6535-Estes-St-Arvada-CO-80004/13716819_zpid/,9.271341376780791,Good,304.41400304414003,76.52573177731011,7826.0,525.6,876.0,328.5,3.9779299847793,9174.0
184,119085012,"$879,900",879900.0,887663.0,4749.0,576919.0,3.0,3.0,5084.0,9583.2,0.22000000000000003,39.8511,-105.20081,80007,Arvada,CO,17793 W 84th Dr Arvada CO 80007,FOR_SALE,House for sale,SINGLE_FAMILY,False,False,-1,https://zillow.com/homedetails/17793-W-84th-Dr-Arvada-CO-80007/119085012_zpid/,4.461118563093539,Best,173.07238394964594,91.81692962684697,4499.200000000001,1694.6666666666667,1694.6666666666667,847.3333333333334,1.8849724626278521,7763.0
185,13746562,"$498,500",498500.0,513019.0,2650.0,391006.0,3.0,2.0,2184.0,16117.199999999999,0.37,39.747765,-105.09975,80215,Lakewood,CO,8965 W 20th Ave Lakewood CO 80215,FOR_SALE,House for sale,SINGLE_FAMILY,False,False,-1,https://zillow.com/homedetails/8965-W-20th-Ave-Lakewood-CO-80215/13746562_zpid/,13.036298968113558,Subpar,228.25091575091574,30.929690020599114,13933.199999999999,728.0,1092.0,436.8,7.379670329670329,14519.0
186,12980271,"$777,000",777000.0,783216.0,3756.0,532374.0,5.0,3.0,3684.0,9147.6,0.21000000000000002,39.861145,-105.045494,80031,Westminster,CO,9038 Winona Ct Westminster CO 80031,FOR_SALE,House for sale,SINGLE_FAMILY,False,False,-1,https://zillow.com/homedetails/9038-Winona-Ct-Westminster-CO-80031/12980271_zpid/,9.663034037699456,Good,210.91205211726384,84.94031221303948,5463.6,736.8,1228.0,460.5,2.4830618892508145,6216.0
187,2062185924,$0+,0.0,,,,,0.0,,,,39.865993,-105.09311,80021,Broomfield,CO,parkview village,FOR_SALE,New construction,SINGLE_FAMILY,False,False,-1,https://zillow.com/community/parkview-village/29574285_plid/,7.233871538869921,Good,,,,,,,,
188,13707693,"$895,000",895000.0,902897.0,4362.0,600234.0,3.0,3.0,3563.0,9452.0,0.2169880624426079,39.80802,-105.185356,80403,Golden,CO,6034 Rogers Cir Golden CO 80403,FOR_SALE,House for sale,SINGLE_FAMILY,False,False,-1,https://zillow.com/homedetails/6034-Rogers-Cir-Golden-CO-80403/13707693_zpid/,7.53660608780317,Good,251.19281504350266,94.68895471857807,5889.0,1187.6666666666667,1187.6666666666667,593.8333333333334,2.6528206567499297,7897.0
189,13024521,"$600,000",600000.0,606999.0,2564.0,392312.0,3.0,2.0,1948.0,6873.0,0.15778236914600552,39.82632,-105.05148,80030,Westminster,CO,5007 W 71st Ct Westminster CO 80030,FOR_SALE,House for sale,SINGLE_FAMILY,False,False,-1,https://zillow.com/homedetails/5007-W-71st-Ct-Westminster-CO-80030/13024521_zpid/,10.559960366951787,Middle,308.0082135523614,87.29812309035356,4925.0,649.3333333333334,974.0,389.6,3.5282340862423,6999.0
190,13695237,"$500,000",500000.0,508474.0,2228.0,359400.0,4.0,2.0,1674.0,6492.0,0.1490358126721763,39.85297,-105.09856,80005,Arvada,CO,8563 Everett Ct Arvada CO 80005,FOR_SALE,House for sale,SINGLE_FAMILY,False,False,-1,https://zillow.com/homedetails/8563-Everett-Ct-Arvada-CO-80005/13695237_zpid/,7.457467310649238,Good,298.6857825567503,77.01786814540974,4818.0,418.5,837.0,279.0,3.878136200716846,8474.0
191,13723377,"$624,000",624000.0,637873.0,2768.0,442837.0,4.0,2.0,2105.0,12367.0,0.2839072543617998,39.804848,-105.13023,80004,Arvada,CO,5934 Swadley Ct Arvada CO 80004,FOR_SALE,House for sale,SINGLE_FAMILY,False,False,-1,https://zillow.com/homedetails/5934-Swadley-Ct-Arvada-CO-80004/13723377_zpid/,8.800193853922853,Good,296.43705463182897,50.45686100105119,10262.0,526.25,1052.5,350.8333333333333,5.875059382422803,13873.0
192,63365902,"$2,799,950",2799950.0,2749950.0,11197.0,1292754.0,4.0,6.0,6496.0,71251.092,1.6357,39.82519,-105.08413,80004,Arvada,CO,7690 W 71st Ave Arvada CO 80004,FOR_SALE,House for sale,SINGLE_FAMILY,False,False,-1,https://zillow.com/homedetails/7690-W-71st-Ave-Arvada-CO-80004/63365902_zpid/,9.255998245914503,Good,431.0267857142857,39.29694158231287,64755.092000000004,1624.0,1082.6666666666667,649.6,10.968456280788178,-50000.0
193,13714022,"$525,000",525000.0,544376.0,3295.0,379814.0,4.0,2.0,2000.0,8712.0,0.2,39.81843,-105.05894,80003,Arvada,CO,5713 W 67th Ave Arvada CO 80003,FOR_SALE,House for sale,SINGLE_FAMILY,False,False,-1,https://zillow.com/homedetails/5713-W-67th-Ave-Arvada-CO-80003/13714022_zpid/,10.575356573706573,Middle,262.5,60.26170798898072,6712.0,500.0,1000.0,333.3333333333333,4.356,19376.0
194,13686497,"$625,000",625000.0,635593.0,2808.0,445685.0,4.0,3.0,2905.0,6706.0,0.1539485766758494,39.88072,-105.11557,80021,Westminster,CO,10411 W 101st Pl Westminster CO 80021,FOR_SALE,House for sale,SINGLE_FAMILY,False,False,-1,https://zillow.com/homedetails/10411-W-101st-Pl-Westminster-CO-80021/13686497_zpid/,5.715597504109326,Best,215.14629948364887,93.20011929615269,3801.0,726.25,968.3333333333334,415.0,2.3084337349397592,10593.0
195,13728935,"$595,000",595000.0,612207.0,2500.0,346622.0,4.0,2.0,1260.0,6283.0,0.1442378328741965,39.797432,-105.07105,80002,Arvada,CO,5570 Otis Ct Arvada CO 80002,FOR_SALE,House for sale,SINGLE_FAMILY,False,False,-1,https://zillow.com/homedetails/5570-Otis-Ct-Arvada-CO-80002/13728935_zpid/,11.098075013558026,Middle,472.22222222222223,94.69998408403629,5023.0,315.0,630.0,210.0,4.9865079365079366,17207.0
196,13719357,"$625,000",625000.0,638095.0,3227.0,411260.0,5.0,3.0,2464.0,8186.0,0.1879247015610652,39.816784,-105.14114,80004,Arvada,CO,12660 W 66th Pl Arvada CO 80004,FOR_SALE,House for sale,SINGLE_FAMILY,False,False,-1,https://zillow.com/homedetails/12660-W-66th-Pl-Arvada-CO-80004/13719357_zpid/,7.796617233225903,Good,253.6525974025974,76.3498656242365,5722.0,492.8,821.3333333333334,308.0,3.32224025974026,13095.0
197,63367041,"$998,500",998500.0,998501.0,4686.0,748841.0,6.0,5.0,4644.0,12501.0,0.28698347107438016,39.831097,-105.17629,80007,Arvada,CO,15726 W 74th Pl Arvada CO 80007,FOR_SALE,House for sale,SINGLE_FAMILY,False,False,-1,https://zillow.com/homedetails/15726-W-74th-Pl-Arvada-CO-80007/63367041_zpid/,6.121499795209698,Best,215.00861326442723,79.8736101111911,7857.0,774.0,928.8,422.1818181818182,2.691860465116279,1.0
198,13730376,"$654,975",654975.0,667741.0,2398.0,346998.0,2.0,2.0,1112.0,7405.2,0.16999999999999998,39.79597,-105.10408,80002,Arvada,CO,5475 Hoyt Dr Arvada CO 80002,FOR_SALE,House for sale,SINGLE_FAMILY,False,False,-1,https://zillow.com/homedetails/5475-Hoyt-Dr-Arvada-CO-80002/13730376_zpid/,10.068017647647883,Middle,589.0062949640288,88.44798249878464,6293.2,556.0,556.0,278.0,6.659352517985611,12766.0
199,119082769,"$1,750,000",1750000.0,1742045.0,5192.0,925463.0,4.0,4.0,6596.0,15245.999999999998,0.35,39.869495,-105.18311,80007,Arvada,CO,9566 Poppy Way Arvada CO 80007,FOR_SALE,House for sale,SINGLE_FAMILY,False,False,-1,https://zillow.com/homedetails/9566-Poppy-Way-Arvada-CO-80007/119082769_zpid/,3.532861711794054,Best,265.3123104912068,114.78420569329661,8649.999999999998,1649.0,1649.0,824.5,2.3114008489993934,-7955.0
200,13313111,"$947,000",947000.0,974042.0,3548.0,699000.0,2.0,3.0,2257.0,5100.0,0.11707988980716254,39.765053,-105.048004,80212,Denver,CO,4709 W 34th Ave Denver CO 80212,FOR_SALE,House for sale,SINGLE_FAMILY,False,False,-1,https://zillow.com/homedetails/4709-W-34th-Ave-Denver-CO-80212/13313111_zpid/,13.583890197181194,Subpar,419.5835179441737,185.68627450980392,2843.0,1128.5,752.3333333333334,451.4,2.259636685866194,27042.0
201,338449306,"$649,990",649990.0,660120.0,2900.0,96073.0,3.0,2.0,2508.0,1334.0,0.030624426078971534,39.82226,-105.166885,80007,Arvada,CO,15184 W 69th Ave Arvada CO 80007,FOR_SALE,House for sale,SINGLE_FAMILY,False,False,-1,https://zillow.com/homedetails/15184-W-69th-Ave-Arvada-CO-80007/338449306_zpid/,6.866409621951938,Best,259.1666666666667,487.24887556221887,-1174.0,836.0,1254.0,501.6,0.5318979266347688,10130.0
202,13734966,"$798,500",798500.0,806033.0,3249.0,545025.0,5.0,3.0,4653.0,10018.8,0.22999999999999998,39.779266,-105.07592,80033,Wheat Ridge,CO,4541 Saulsbury St Wheat Ridge CO 80033,FOR_SALE,House for sale,SINGLE_FAMILY,False,False,-1,https://zillow.com/homedetails/4541-Saulsbury-St-Wheat-Ridge-CO-80033/13734966_zpid/,11.88641215139738,Middle,171.60971416290565,79.70016369225856,5365.799999999999,930.6,1551.0,581.625,2.153191489361702,7533.0
203,13718097,"$699,000",699000.0,711156.0,2999.0,418875.0,5.0,3.0,2820.0,8040.0,0.18457300275482094,39.814854,-105.121155,80004,Arvada,CO,6485 Parfet St Arvada CO 80004,FOR_SALE,House for sale,SINGLE_FAMILY,False,False,-1,https://zillow.com/homedetails/6485-Parfet-St-Arvada-CO-80004/13718097_zpid/,8.479429137612795,Good,247.87234042553192,86.94029850746269,5220.0,564.0,940.0,352.5,2.851063829787234,12156.0
204,119083062,"$819,000",819000.0,827272.0,4206.0,509948.0,4.0,3.0,4311.0,7677.0,0.1762396694214876,39.868923,-105.16845,80007,Arvada,CO,9553 Joyce Way Arvada CO 80007,FOR_SALE,House for sale,SINGLE_FAMILY,False,False,-1,https://zillow.com/homedetails/9553-Joyce-Way-Arvada-CO-80007/119083062_zpid/,3.982508262970816,Best,189.97912317327766,106.68229777256741,3366.0,1077.75,1437.0,615.8571428571429,1.7807933194154488,8272.0
205,13745060,"$1,600,000",1600000.0,1600006.0,4347.0,754381.0,4.0,3.0,5036.0,18674.0,0.4286960514233242,39.74208,-105.137344,80215,Lakewood,CO,12362 W 16th Dr Lakewood CO 80215,FOR_SALE,House for sale,SINGLE_FAMILY,False,False,-1,https://zillow.com/homedetails/12362-W-16th-Dr-Lakewood-CO-80215/13745060_zpid/,12.61022510254183,Subpar,317.7124702144559,85.68062546856592,13638.0,1259.0,1678.6666666666667,719.4285714285714,3.708101667990469,6.0
206,338450514,"$625,000",625000.0,,,44915.0,3.0,4.0,1740.0,2150.0,0.049357208448117536,39.808716,-105.05569,80003,Arvada,CO,6025 Benton St Arvada CO 80003,FOR_SALE,House for sale,SINGLE_FAMILY,False,False,-1,https://zillow.com/homedetails/6025-Benton-St-Arvada-CO-80003/338450514_zpid/,11.140267322210885,Middle,359.1954022988506,290.69767441860466,410.0,580.0,435.0,248.57142857142858,1.235632183908046,
207,58768382,"$949,000",949000.0,957759.0,4140.0,644974.0,4.0,4.0,3675.0,5227.2,0.12,39.83837,-105.146774,80005,Arvada,CO,7855 Zinnia St Arvada CO 80005,FOR_SALE,House for sale,SINGLE_FAMILY,False,False,-1,https://zillow.com/homedetails/7855-Zinnia-St-Arvada-CO-80005/58768382_zpid/,6.3698167826967635,Best,258.2312925170068,181.55035200489746,1552.1999999999998,918.75,918.75,459.375,1.4223673469387754,8759.0
208,13698678,"$875,000",875000.0,882720.0,3994.0,584823.0,4.0,4.0,3403.0,8326.0,0.1911386593204775,39.848297,-105.13075,80005,Arvada,CO,8334 Swadley St Arvada CO 80005,FOR_SALE,House for sale,SINGLE_FAMILY,False,False,-1,https://zillow.com/homedetails/8334-Swadley-St-Arvada-CO-80005/13698678_zpid/,6.367641414698036,Best,257.126065236556,105.09248138361758,4923.0,850.75,850.75,425.375,2.4466647076109314,7720.0
209,295313596,"$1,325,000",1325000.0,1325007.0,3587.0,87883.0,3.0,5.0,3307.0,4797.0,0.11012396694214877,39.820168,-105.08973,80004,Arvada,CO,8367 W 68th Ave Arvada CO 80004,FOR_SALE,House for sale,SINGLE_FAMILY,False,False,-1,https://zillow.com/homedetails/8367-W-68th-Ave-Arvada-CO-80004/295313596_zpid/,9.279211330506577,Good,400.6652555185969,276.2143006045445,1490.0,1102.3333333333333,661.4,413.375,1.4505594194133655,7.0
210,121928975,"$785,000",785000.0,795047.0,2926.0,443646.0,2.0,3.0,2956.0,3875.0,0.08895775941230487,39.852028,-105.18743,80007,Arvada,CO,8604 Rogers Way APT B Arvada CO 80007,FOR_SALE,House for sale,SINGLE_FAMILY,False,False,-1,https://zillow.com/homedetails/8604-Rogers-Way-APT-B-Arvada-CO-80007/121928975_zpid/,4.562675211117348,Best,265.5615696887686,202.58064516129033,919.0,1478.0,985.3333333333334,591.2,1.310893098782138,10047.0
211,13716944,"$675,000",675000.0,686440.0,3099.0,512316.0,5.0,3.0,2304.0,7786.0,0.17874196510560147,39.815292,-105.09527,80004,Arvada,CO,6516 Estes St Arvada CO 80004,FOR_SALE,House for sale,SINGLE_FAMILY,False,False,-1,https://zillow.com/homedetails/6516-Estes-St-Arvada-CO-80004/13716944_zpid/,9.3194198812772,Good,292.96875,86.69406627279733,5482.0,460.8,768.0,288.0,3.3793402777777777,11440.0
212,13698974,"$650,000",650000.0,661818.0,2852.0,439847.0,4.0,3.0,2267.0,10516.0,0.24141414141414141,39.834106,-105.15395,80005,Arvada,CO,7617 Coors Ct Arvada CO 80005,FOR_SALE,House for sale,SINGLE_FAMILY,False,False,-1,https://zillow.com/homedetails/7617-Coors-Ct-Arvada-CO-80005/13698974_zpid/,6.420219305247036,Best,286.7225408028231,61.81057436287562,8249.0,566.75,755.6666666666666,323.85714285714283,4.6387295985884425,11818.0
213,13315321,"$2,775,000",2775000.0,2755375.0,10585.0,1620400.0,5.0,7.0,4200.0,5970.0,0.13705234159779614,39.754013,-105.049545,80212,Denver,CO,2500 Xavier St Denver CO 80212,FOR_SALE,House for sale,SINGLE_FAMILY,False,False,-1,https://zillow.com/homedetails/2500-Xavier-St-Denver-CO-80212/13315321_zpid/,14.123725329932302,Subpar,660.7142857142857,464.8241206030151,1770.0,840.0,600.0,350.0,1.4214285714285715,-19625.0
214,13744146,"$745,000",745000.0,757173.0,2895.0,541195.0,4.0,3.0,2427.0,12541.0,0.2879017447199265,39.748432,-105.132,80215,Lakewood,CO,2070 Union Dr Lakewood CO 80215,FOR_SALE,House for sale,SINGLE_FAMILY,False,False,-1,https://zillow.com/homedetails/2070-Union-Dr-Lakewood-CO-80215/13744146_zpid/,12.29258849864009,Middle,306.9633292130202,59.405151104377644,10114.0,606.75,809.0,346.7142857142857,5.167284713638237,12173.0
215,108394074,"$1,495,000",1495000.0,1486140.0,6574.0,1108354.0,5.0,5.0,6914.0,13081.0,0.30029843893480257,39.756104,-105.14688,80401,Golden,CO,13198 W 27th Ln Golden CO 80401,FOR_SALE,House for sale,SINGLE_FAMILY,False,False,-1,https://zillow.com/homedetails/13198-W-27th-Ln-Golden-CO-80401/108394074_zpid/,11.531121443253578,Middle,216.2279433034423,114.28789847870958,6167.0,1382.8,1382.8,691.4,1.891958345386173,-8860.0
216,13687551,"$620,000",620000.0,629999.0,2679.0,440792.0,3.0,2.0,2338.0,7144.0,0.1640036730945822,39.866016,-105.100075,80021,Westminster,CO,9386 Garrison Dr Westminster CO 80021,FOR_SALE,House for sale,SINGLE_FAMILY,False,False,-1,https://zillow.com/homedetails/9386-Garrison-Dr-Westminster-CO-80021/13687551_zpid/,6.908763905641893,Best,265.18391787852863,86.78611422172452,4806.0,779.3333333333334,1169.0,467.6,3.0556030795551754,9999.0
217,334527196,"$660,323",660323.0,,,56950.0,3.0,3.0,1804.0,1950.0,0.044765840220385676,39.79411,-105.12458,80002,Arvada,CO,11231 W 53rd Dr Arvada CO 80002,FOR_SALE,New construction,SINGLE_FAMILY,False,False,-1,https://zillow.com/homedetails/11231-W-53rd-Dr-Arvada-CO-80002/334527196_zpid/,9.592967305913012,Good,366.0327050997783,338.6271794871795,146.0,601.3333333333334,601.3333333333334,300.6666666666667,1.080931263858093,
218,13726596,"$675,000",675000.0,687272.0,2949.0,443027.0,4.0,2.0,2428.0,9424.0,0.21634527089072544,39.79963,-105.09472,80002,Arvada,CO,5655 Dudley St Arvada CO 80002,FOR_SALE,House for sale,SINGLE_FAMILY,False,False,-1,https://zillow.com/homedetails/5655-Dudley-St-Arvada-CO-80002/13726596_zpid/,10.163356583114881,Middle,278.006589785832,71.62563667232598,6996.0,607.0,1214.0,404.6666666666667,3.8813838550247115,12272.0
219,119082951,"$840,000",840000.0,849664.0,3350.0,475156.0,3.0,3.0,2966.0,8799.0,0.20199724517906337,39.86704,-105.178444,80007,Arvada,CO,9382 Noble Way Arvada CO 80007,FOR_SALE,House for sale,SINGLE_FAMILY,False,False,-1,https://zillow.com/homedetails/9382-Noble-Way-Arvada-CO-80007/119082951_zpid/,3.79990732498525,Best,283.2097100472016,95.4653937947494,5833.0,988.6666666666666,988.6666666666666,494.3333333333333,2.9666217127444368,9664.0
220,13717203,"$599,000",599000.0,616323.0,2801.0,412773.0,5.0,3.0,2292.0,7418.0,0.17029384756657484,39.821835,-105.11506,80004,Arvada,CO,6903 Moore St Arvada CO 80004,FOR_SALE,House for sale,SINGLE_FAMILY,False,False,-1,https://zillow.com/homedetails/6903-Moore-St-Arvada-CO-80004/13717203_zpid/,8.291074728302613,Good,261.3438045375218,80.74952817471016,5126.0,458.4,764.0,286.5,3.236474694589878,17323.0
221,13730516,"$599,900",599900.0,612469.0,2199.0,311324.0,2.0,1.0,972.0,7429.0,0.1705463728191001,39.794674,-105.10509,80002,Arvada,CO,5395 Independence St Arvada CO 80002,FOR_SALE,House for sale,SINGLE_FAMILY,False,False,-1,https://zillow.com/homedetails/5395-Independence-St-Arvada-CO-80002/13730516_zpid/,10.110626942837085,Middle,617.1810699588477,80.75111051285502,6457.0,486.0,972.0,324.0,7.643004115226337,12569.0
222,13714675,"$560,000",560000.0,578571.0,2500.0,402705.0,5.0,3.0,2486.0,10760.0,0.24701561065197428,39.823925,-105.080376,80003,Arvada,CO,7455 W 69th Pl Arvada CO 80003,FOR_SALE,House for sale,SINGLE_FAMILY,False,False,-1,https://zillow.com/homedetails/7455-W-69th-Pl-Arvada-CO-80003/13714675_zpid/,9.462670781860194,Good,225.2614641995173,52.04460966542751,8274.0,497.2,828.6666666666666,310.75,4.328238133547868,18571.0
223,121928553,"$840,000",840000.0,852651.0,3434.0,472579.0,4.0,4.0,3096.0,6050.0,0.1388888888888889,39.854942,-105.19031,80007,Arvada,CO,16978 W 87th Ave Arvada CO 80007,FOR_SALE,House for sale,SINGLE_FAMILY,False,False,-1,https://zillow.com/homedetails/16978-W-87th-Ave-Arvada-CO-80007/121928553_zpid/,4.325074755994666,Best,271.3178294573643,138.84297520661158,2954.0,774.0,774.0,387.0,1.9541343669250646,12651.0
224,119083763,"$815,000",815000.0,824819.0,4352.0,524876.0,5.0,4.0,4311.0,6534.0,0.15,39.867306,-105.169334,80007,Arvada,CO,9455 Joyce Way Arvada CO 80007,FOR_SALE,House for sale,SINGLE_FAMILY,False,False,-1,https://zillow.com/homedetails/9455-Joyce-Way-Arvada-CO-80007/119083763_zpid/,4.044727344794553,Best,189.0512642078404,124.73217018671563,2223.0,862.2,1077.75,479.0,1.5156576200417538,9819.0
225,13728866,"$475,000",475000.0,492221.0,2706.0,364154.0,1.0,2.0,1228.0,13068.0,0.3,39.801422,-105.06766,80002,Arvada,CO,5755 Lamar St Arvada CO 80002,FOR_SALE,House for sale,SINGLE_FAMILY,False,False,-1,https://zillow.com/homedetails/5755-Lamar-St-Arvada-CO-80002/13728866_zpid/,11.023577925057909,Middle,386.80781758957653,36.348331802877254,11840.0,1228.0,614.0,409.3333333333333,10.64169381107492,17221.0
226,121926698,"$799,000",799000.0,808626.0,4851.0,533563.0,5.0,5.0,3817.0,5500.0,0.12626262626262627,39.85554,-105.19052,80007,Arvada,CO,17037 W 87th Ave Arvada CO 80007,FOR_SALE,House for sale,SINGLE_FAMILY,False,False,-1,https://zillow.com/homedetails/17037-W-87th-Ave-Arvada-CO-80007/121926698_zpid/,4.282298975442575,Best,209.32669635839665,145.27272727272728,1683.0,763.4,763.4,381.7,1.440922190201729,9626.0
227,121926937,"$1,000,000",1000000.0,1000009.0,4100.0,610557.0,3.0,3.0,4000.0,9610.0,0.22061524334251606,39.84837,-105.18593,80007,Arvada,CO,8438 Quartz Way Arvada CO 80007,FOR_SALE,House for sale,SINGLE_FAMILY,False,False,-1,https://zillow.com/homedetails/8438-Quartz-Way-Arvada-CO-80007/121926937_zpid/,4.827643166653775,Best,250.0,104.0582726326743,5610.0,1333.3333333333333,1333.3333333333333,666.6666666666666,2.4025,9.0
228,51407135,"$825,000",825000.0,838983.0,3128.0,543358.0,4.0,4.0,3312.0,20908.8,0.48,39.868755,-105.07792,80021,Westminster,CO,7285 W 94th Pl Westminster CO 80021,FOR_SALE,House for sale,SINGLE_FAMILY,False,False,-1,https://zillow.com/homedetails/7285-W-94th-Pl-Westminster-CO-80021/51407135_zpid/,7.875498662843877,Good,249.09420289855072,39.457070707070706,17596.8,828.0,828.0,414.0,6.3130434782608695,13983.0
229,13693886,"$630,000",630000.0,645840.0,2928.0,435390.0,3.0,3.0,2174.0,9981.0,0.22913223140495867,39.85195,-105.08534,80005,Arvada,CO,8472 Zephyr St Arvada CO 80005,FOR_SALE,House for sale,SINGLE_FAMILY,False,False,-1,https://zillow.com/homedetails/8472-Zephyr-St-Arvada-CO-80005/13693886_zpid/,8.079350982232363,Good,289.7884084636614,63.11992786293958,7807.0,724.6666666666666,724.6666666666666,362.3333333333333,4.591076356945722,15840.0
230,331705252,"$939,000",939000.0,,,735330.0,6.0,4.0,3255.0,8712.0,0.2,39.828884,-105.142166,80005,Arvada,CO,7263 Xenophon Ct Arvada CO 80005,FOR_SALE,New construction,SINGLE_FAMILY,False,False,-1,https://zillow.com/homedetails/7263-Xenophon-Ct-Arvada-CO-80005/331705252_zpid/,7.052139580215417,Good,288.47926267281105,107.78236914600551,5457.0,542.5,813.75,325.5,2.6764976958525346,
231,13735781,"$675,000",675000.0,686029.0,2738.0,450657.0,4.0,2.0,2628.0,10454.0,0.23999081726354454,39.77554,-105.072426,80033,Wheat Ridge,CO,4295 Pierce St Wheat Ridge CO 80033,FOR_SALE,House for sale,SINGLE_FAMILY,False,False,-1,https://zillow.com/homedetails/4295-Pierce-St-Wheat-Ridge-CO-80033/13735781_zpid/,12.203528313224538,Middle,256.8493150684931,64.56858618710541,7826.0,657.0,1314.0,438.0,3.9779299847793,11029.0
232,13725651,"$725,000",725000.0,738181.0,2937.0,395929.0,5.0,3.0,2292.0,7405.2,0.16999999999999998,39.811558,-105.10616,80004,Arvada,CO,9642 W 63rd Pl Arvada CO 80004,FOR_SALE,House for sale,SINGLE_FAMILY,False,False,-1,https://zillow.com/homedetails/9642-W-63rd-Pl-Arvada-CO-80004/13725651_zpid/,9.140354709242054,Good,316.3176265270506,97.9041754442824,5113.2,458.4,764.0,286.5,3.230890052356021,13181.0
233,13740656,"$949,000",949000.0,965084.0,2766.0,570900.0,3.0,3.0,2121.0,12387.0,0.284366391184573,39.763695,-105.117584,80033,Wheat Ridge,CO,3320 Nelson St Wheat Ridge CO 80033,FOR_SALE,House for sale,SINGLE_FAMILY,False,False,-1,https://zillow.com/homedetails/3320-Nelson-St-Wheat-Ridge-CO-80033/13740656_zpid/,11.626570953989,Middle,447.4304573314474,76.61257770242997,10266.0,707.0,707.0,353.5,5.8401697312588405,16084.0
234,13740340,"$965,000",965000.0,976103.0,3249.0,473302.0,4.0,3.0,2756.0,12894.0,0.2960055096418733,39.76489,-105.109024,80033,Wheat Ridge,CO,9965 W 34th Dr Wheat Ridge CO 80033,FOR_SALE,House for sale,SINGLE_FAMILY,False,False,-1,https://zillow.com/homedetails/9965-W-34th-Dr-Wheat-Ridge-CO-80033/13740340_zpid/,11.76005991518355,Middle,350.14513788098697,74.84101132309601,10138.0,689.0,918.6666666666666,393.7142857142857,4.678519593613934,11103.0
235,249094891,"$2,000,000",2000000.0,1985401.0,5458.0,892002.0,5.0,5.0,5183.0,12766.0,0.2930670339761249,39.869476,-105.20458,80007,Arvada,CO,9542 Yucca Way Arvada CO 80007,FOR_SALE,House for sale,SINGLE_FAMILY,False,False,-1,https://zillow.com/homedetails/9542-Yucca-Way-Arvada-CO-80007/249094891_zpid/,3.175812752723719,Best,385.87690526721974,156.66614444618517,7583.0,1036.6,1036.6,518.3,2.463052286320664,-14599.0
236,13744748,"$765,000",765000.0,776273.0,3128.0,657811.0,4.0,3.0,2401.0,14550.0,0.33402203856749313,39.743042,-105.14582,80401,Golden,CO,13000 Willow Ln Golden CO 80401,FOR_SALE,House for sale,SINGLE_FAMILY,False,False,-1,https://zillow.com/homedetails/13000-Willow-Ln-Golden-CO-80401/13744748_zpid/,12.409255383224828,Subpar,318.61724281549357,52.577319587628864,12149.0,600.25,800.3333333333334,343.0,6.0599750104123284,11273.0
237,334526765,"$750,000",750000.0,759599.0,3599.0,90119.0,4.0,4.0,2564.0,2207.0,0.05066574839302112,39.799465,-105.13636,80002,Arvada,CO,12260 W 57th Pl Arvada CO 80002,FOR_SALE,House for sale,SINGLE_FAMILY,False,False,-1,https://zillow.com/homedetails/12260-W-57th-Pl-Arvada-CO-80002/334526765_zpid/,8.970175902885009,Good,292.5117004680187,339.8278205709107,-357.0,641.0,641.0,320.5,0.8607644305772231,9599.0
